{"type":"FeatureCollection","features":[{"type":"Feature","properties":{"OBJECTID":2029395,"LSN":"5075 WESTERVILLE RD","POI_NAME":"Platinum Advertising","POI_TYPE":"Office - Corporate","POI_SOURCE":null},"geometry":{"type":"Point","coordinates":[-82.92929363197081,40.07539618244913]}},{"type":"Feature","properties":{"OBJECTID":2029421,"LSN":"3300 INDIANOLA AVE","POI_NAME":"Igo & Igo Attorney","POI_TYPE":"Office - Corporate","POI_SOURCE":null},"geometry":{"type":"Point","coordinates":[-83.00087984117695,40.030966572586316]}},{"type":"Feature","properties":{"OBJECTID":2029425,"LSN":"1390 DUBLIN RD","POI_NAME":"Central Ohio Trauma System","POI_TYPE":"Office - Non-Profit","POI_SOURCE":null},"geometry":{"type":"Point","coordinates":[-83.06353885178915,39.9832680429297]}},{"type":"Feature","properties":{"OBJECTID":2029432,"LSN":"1803 OBRIEN RD","POI_NAME":"Newall Electronics","POI_TYPE":"Office - Corporate","POI_SOURCE":null},"geometry":{"type":"Point","coordinates":[-83.1198481429869,39.989413212502775]}},{"type":"Feature","properties":{"OBJECTID":2029452,"LSN":"1407 CLEVELAND AVE","POI_NAME":"Columbus Metropolitan Housing Authority","POI_TYPE":"Office - Non-Profit","POI_SOURCE":null},"geometry":{"type":"Point","coordinates":[-82.98179760958867,39.99392976519506]}},{"type":"Feature","properties":{"OBJECTID":2029464,"LSN":"5275 SINCLAIR RD","POI_NAME":"Atlas Industrial Contractors","POI_TYPE":"Office - Corporate","POI_SOURCE":null},"geometry":{"type":"Point","coordinates":[-82.99842918508587,40.073430406678995]}},{"type":"Feature","properties":{"OBJECTID":2029480,"LSN":"3700 FISHINGER BLVD","POI_NAME":"Contact US Communications","POI_TYPE":"Office - Corporate","POI_SOURCE":null},"geometry":{"type":"Point","coordinates":[-83.11456302755285,40.02953503075635]}},{"type":"Feature","properties":{"OBJECTID":2029497,"LSN":"21 E STATE ST","POI_NAME":"Fifth Third Bank","POI_TYPE":"Office - Bank","POI_SOURCE":null},"geometry":{"type":"Point","coordinates":[-82.99958577353388,39.96010631641859]}},{"type":"Feature","properties":{"OBJECTID":2029506,"LSN":"3600 ENTERPRISE AVE","POI_NAME":"King Tut Logistics","POI_TYPE":"Office - Corporate","POI_SOURCE":null},"geometry":{"type":"Point","coordinates":[-83.09896879426188,39.96996571030643]}},{"type":"Feature","properties":{"OBJECTID":2029542,"LSN":"3454 N HIGH ST","POI_NAME":"SMART Federal Credit Union","POI_TYPE":"Office - Bank","POI_SOURCE":null},"geometry":{"type":"Point","coordinates":[-83.01578648923717,40.032464237176654]}},{"type":"Feature","properties":{"OBJECTID":2029560,"LSN":"2178 DIVIDEND DR","POI_NAME":"Scriptel Corporation","POI_TYPE":"Office - Corporate","POI_SOURCE":null},"geometry":{"type":"Point","coordinates":[-83.11932232777862,39.99689114154372]}},{"type":"Feature","properties":{"OBJECTID":2029563,"LSN":"2190 DIVIDEND DR","POI_NAME":"Intellinetics","POI_TYPE":"Office - Corporate","POI_SOURCE":null},"geometry":{"type":"Point","coordinates":[-83.11933901190272,39.99728617681115]}},{"type":"Feature","properties":{"OBJECTID":2029566,"LSN":"1233 DUBLIN RD","POI_NAME":"Clarus Partners CPA","POI_TYPE":"Office - Corporate","POI_SOURCE":null},"geometry":{"type":"Point","coordinates":[-83.0557400943603,39.97487540133288]}},{"type":"Feature","properties":{"OBJECTID":2029570,"LSN":"550 CLEVELAND AVE","POI_NAME":"Carl N CottoneCo Attorney","POI_TYPE":"Office - Corporate","POI_SOURCE":null},"geometry":{"type":"Point","coordinates":[-82.98878462844085,39.97495528642153]}},{"type":"Feature","properties":{"OBJECTID":2029572,"LSN":"6820 LAUFFER RD","POI_NAME":"Communications Engineering","POI_TYPE":"Office - Corporate","POI_SOURCE":null},"geometry":{"type":"Point","coordinates":[-82.94765022106444,40.10883733081411]}},{"type":"Feature","properties":{"OBJECTID":2029581,"LSN":"2484 SCARBOROUGH SQ Unit 01","POI_NAME":"Allstate Insurance","POI_TYPE":"Office - Corporate","POI_SOURCE":null},"geometry":{"type":"Point","coordinates":[-82.83384506760407,39.930042258890836]}},{"type":"Feature","properties":{"OBJECTID":2029583,"LSN":"7801 OLENTANGY RIVER RD","POI_NAME":"The Realty Firm","POI_TYPE":"Office - Corporate","POI_SOURCE":null},"geometry":{"type":"Point","coordinates":[-83.03686044618848,40.12285743178568]}},{"type":"Feature","properties":{"OBJECTID":2029585,"LSN":"4255 N HIGH ST","POI_NAME":"Ohio Insurance Group","POI_TYPE":"Office - Corporate","POI_SOURCE":null},"geometry":{"type":"Point","coordinates":[-83.0205840208076,40.04879594985101]}},{"type":"Feature","properties":{"OBJECTID":2029590,"LSN":"1654 E BROAD ST","POI_NAME":"Robert D Erney, Lawyer","POI_TYPE":"Office - Corporate","POI_SOURCE":null},"geometry":{"type":"Point","coordinates":[-82.95679809979076,39.967536491575764]}},{"type":"Feature","properties":{"OBJECTID":2029600,"LSN":"3860 KIMBERLY PKWY N","POI_NAME":"Association Development Disabled","POI_TYPE":"Office - Non-Profit","POI_SOURCE":null},"geometry":{"type":"Point","coordinates":[-82.89358262106745,39.923213412888636]}},{"type":"Feature","properties":{"OBJECTID":2029608,"LSN":"1471 E BROAD ST","POI_NAME":"Professionals Guild of Ohio","POI_TYPE":"Office - Corporate","POI_SOURCE":null},"geometry":{"type":"Point","coordinates":[-82.96156056772188,39.96651272107769]}},{"type":"Feature","properties":{"OBJECTID":2029625,"LSN":"4453 PROFESSIONAL PKWY","POI_NAME":"Allstate Fire & Security","POI_TYPE":"Office - Corporate","POI_SOURCE":null},"geometry":{"type":"Point","coordinates":[-82.8781819636527,39.89192756975899]}},{"type":"Feature","properties":{"OBJECTID":2029634,"LSN":"888 MANSFIELD AVE","POI_NAME":"Henderson Contractors Corp","POI_TYPE":"Office - Corporate","POI_SOURCE":null},"geometry":{"type":"Point","coordinates":[-82.96412645097544,39.98477721877651]}},{"type":"Feature","properties":{"OBJECTID":2029650,"LSN":"3541 ALKIRE RD","POI_NAME":"Koncept J Web Design","POI_TYPE":"Office - Corporate","POI_SOURCE":null},"geometry":{"type":"Point","coordinates":[-83.09026861947866,39.91476209101342]}},{"type":"Feature","properties":{"OBJECTID":2029671,"LSN":"2755 WESTBELT DR","POI_NAME":"Algie Composites ","POI_TYPE":"Office - Corporate","POI_SOURCE":null},"geometry":{"type":"Point","coordinates":[-83.12540806170527,40.00970555038392]}},{"type":"Feature","properties":{"OBJECTID":2029679,"LSN":"5707 WESTBOURNE AVE","POI_NAME":"Home Craft Remodeling","POI_TYPE":"Office - Corporate","POI_SOURCE":null},"geometry":{"type":"Point","coordinates":[-82.84954755178879,39.98401907870424]}},{"type":"Feature","properties":{"OBJECTID":2029687,"LSN":"3455 E BROAD ST","POI_NAME":"Ebner Properties","POI_TYPE":"Office - Corporate","POI_SOURCE":null},"geometry":{"type":"Point","coordinates":[-82.90869934943736,39.972196322041306]}},{"type":"Feature","properties":{"OBJECTID":2029715,"LSN":"3059 E 17TH AVE","POI_NAME":"John Holt Race Cars","POI_TYPE":"Office - Corporate","POI_SOURCE":null},"geometry":{"type":"Point","coordinates":[-82.92409690324047,39.9976085243049]}},{"type":"Feature","properties":{"OBJECTID":2029735,"LSN":"2165 S JAMES RD","POI_NAME":"McAtee","POI_TYPE":"Office - Corporate","POI_SOURCE":null},"geometry":{"type":"Point","coordinates":[-82.91812221171558,39.926996781664606]}},{"type":"Feature","properties":{"OBJECTID":2029737,"LSN":"5061 FREEWAY DR E","POI_NAME":"Optimum System Products","POI_TYPE":"Office - Corporate","POI_SOURCE":null},"geometry":{"type":"Point","coordinates":[-82.99353721416259,40.06837264876237]}},{"type":"Feature","properties":{"OBJECTID":2029740,"LSN":"3504 N HIGH ST","POI_NAME":"International Food & Trading","POI_TYPE":"Office - Corporate","POI_SOURCE":null},"geometry":{"type":"Point","coordinates":[-83.0161703462526,40.033596496976756]}},{"type":"Feature","properties":{"OBJECTID":2029743,"LSN":"1774 DIVIDEND DR","POI_NAME":"Ecommerce Corporation","POI_TYPE":"Office - Corporate","POI_SOURCE":null},"geometry":{"type":"Point","coordinates":[-83.1207838846519,39.990098701997205]}},{"type":"Feature","properties":{"OBJECTID":2029748,"LSN":"1991 BRYDEN RD","POI_NAME":"Alvis House","POI_TYPE":"Office - Non-Profit","POI_SOURCE":null},"geometry":{"type":"Point","coordinates":[-82.94642966531441,39.959804382496856]}},{"type":"Feature","properties":{"OBJECTID":2029751,"LSN":"1271 HARMON AVE","POI_NAME":"Able Pallet Mfg & Repair","POI_TYPE":"Office - Corporate","POI_SOURCE":null},"geometry":{"type":"Point","coordinates":[-83.01537212037732,39.93426590714278]}},{"type":"Feature","properties":{"OBJECTID":2029755,"LSN":"1919 VELMA AVE","POI_NAME":"Family Care Services","POI_TYPE":"Office - Corporate","POI_SOURCE":null},"geometry":{"type":"Point","coordinates":[-82.98914483166119,40.003610796402405]}},{"type":"Feature","properties":{"OBJECTID":2029772,"LSN":"6800 LAUFFER RD","POI_NAME":"Aitken & Associates Advertising","POI_TYPE":"Office - Corporate","POI_SOURCE":null},"geometry":{"type":"Point","coordinates":[-82.94766078115197,40.10825808771554]}},{"type":"Feature","properties":{"OBJECTID":2029800,"LSN":"2941 DONNYLANE BLVD","POI_NAME":"Pixi Media Services","POI_TYPE":"Office - Corporate","POI_SOURCE":null},"geometry":{"type":"Point","coordinates":[-83.09585467410986,40.067207441986376]}},{"type":"Feature","properties":{"OBJECTID":2029813,"LSN":"2699 SCIOTO PKWY","POI_NAME":"The B.B. Bradley Co.","POI_TYPE":"Office - Corporate","POI_SOURCE":null},"geometry":{"type":"Point","coordinates":[-83.11176122936014,40.008626070013825]}},{"type":"Feature","properties":{"OBJECTID":2029832,"LSN":"6235 WESTERVILLE RD","POI_NAME":"Kokosing Construction Company","POI_TYPE":"Office - Corporate","POI_SOURCE":null},"geometry":{"type":"Point","coordinates":[-82.93458529182692,40.10113435462049]}},{"type":"Feature","properties":{"OBJECTID":2029850,"LSN":"1314 MT VERNON AVE","POI_NAME":"Little This Little That ","POI_TYPE":"Office - Corporate","POI_SOURCE":null},"geometry":{"type":"Point","coordinates":[-82.96722588110157,39.97338070153358]}},{"type":"Feature","properties":{"OBJECTID":2029853,"LSN":"945 SCHROCK RD","POI_NAME":"Service Express ","POI_TYPE":"Office - Corporate","POI_SOURCE":null},"geometry":{"type":"Point","coordinates":[-82.99153533806597,40.10158589568345]}},{"type":"Feature","properties":{"OBJECTID":2029855,"LSN":"4601 E 5TH AVE","POI_NAME":"Truco Construction ","POI_TYPE":"Office - Corporate","POI_SOURCE":null},"geometry":{"type":"Point","coordinates":[-82.87192915593269,39.98645342085002]}},{"type":"Feature","properties":{"OBJECTID":2029856,"LSN":"690 SCHROCK RD","POI_NAME":"Anheuser-Busch Employees Credit Union","POI_TYPE":"Office - Bank","POI_SOURCE":null},"geometry":{"type":"Point","coordinates":[-82.99595970727701,40.10286244857524]}},{"type":"Feature","properties":{"OBJECTID":2029861,"LSN":"1530 JOYCE AVE","POI_NAME":"R&J Solutions","POI_TYPE":"Office - Corporate","POI_SOURCE":null},"geometry":{"type":"Point","coordinates":[-82.9655454445634,39.998423270361805]}},{"type":"Feature","properties":{"OBJECTID":2029866,"LSN":"1385 KING AVE","POI_NAME":"JRP Capital Corporation","POI_TYPE":"Office - Corporate","POI_SOURCE":null},"geometry":{"type":"Point","coordinates":[-83.04399721817931,39.99126698077925]}},{"type":"Feature","properties":{"OBJECTID":2029872,"LSN":"5260 GODOWN RD","POI_NAME":"The McCandlish Group","POI_TYPE":"Office - Corporate","POI_SOURCE":null},"geometry":{"type":"Point","coordinates":[-83.05640563724955,40.065544380872396]}},{"type":"Feature","properties":{"OBJECTID":2029876,"LSN":"4525 INDIANOLA AVE","POI_NAME":"Mull & Weithman Architects","POI_TYPE":"Office - Corporate","POI_SOURCE":null},"geometry":{"type":"Point","coordinates":[-83.00079055112009,40.05702395342797]}},{"type":"Feature","properties":{"OBJECTID":2029884,"LSN":"4 EASTON OVAL","POI_NAME":"SafeAuto ","POI_TYPE":"Office - Corporate","POI_SOURCE":null},"geometry":{"type":"Point","coordinates":[-82.9046886510333,40.045244453186854]}},{"type":"Feature","properties":{"OBJECTID":2029887,"LSN":"65 KINGSTON AVE","POI_NAME":"Scioto Services","POI_TYPE":"Office - Corporate","POI_SOURCE":null},"geometry":{"type":"Point","coordinates":[-82.9934257910274,39.91807286140456]}},{"type":"Feature","properties":{"OBJECTID":2029902,"LSN":"3886 N HIGH ST","POI_NAME":"Columbus Realty Source","POI_TYPE":"Office - Corporate","POI_SOURCE":null},"geometry":{"type":"Point","coordinates":[-83.01812445493829,40.041342859627854]}},{"type":"Feature","properties":{"OBJECTID":2029910,"LSN":"1355 COMMUNITY PARK DR","POI_NAME":"Manhattan Mortgage Group","POI_TYPE":"Office - Corporate","POI_SOURCE":null},"geometry":{"type":"Point","coordinates":[-82.95328836391143,40.099637920852196]}},{"type":"Feature","properties":{"OBJECTID":2029911,"LSN":"1371 W 3RD AVE","POI_NAME":"Thomas S Baker Jr ","POI_TYPE":"Office - Corporate","POI_SOURCE":null},"geometry":{"type":"Point","coordinates":[-83.04225205147043,39.98487605354533]}},{"type":"Feature","properties":{"OBJECTID":2029913,"LSN":"4622 SAWMILL RD","POI_NAME":"Distribution Resources","POI_TYPE":"Office - Corporate","POI_SOURCE":null},"geometry":{"type":"Point","coordinates":[-83.09209361364778,40.0624468500067]}},{"type":"Feature","properties":{"OBJECTID":2029922,"LSN":"2635 BILLINGSLEY RD","POI_NAME":"AT&T Midwest Construction","POI_TYPE":"Office - Corporate","POI_SOURCE":null},"geometry":{"type":"Point","coordinates":[-83.08558575932435,40.11179170805634]}},{"type":"Feature","properties":{"OBJECTID":2029941,"LSN":"2162 CLOVERLEAF STE","POI_NAME":"FRS Restoration","POI_TYPE":"Office - Corporate","POI_SOURCE":null},"geometry":{"type":"Point","coordinates":[-82.8727879760029,39.930768026415116]}},{"type":"Feature","properties":{"OBJECTID":2029946,"LSN":"729 S FRONT ST","POI_NAME":"Jay E. Michael, Attorney ","POI_TYPE":"Office - Corporate","POI_SOURCE":null},"geometry":{"type":"Point","coordinates":[-82.9997589806376,39.947030075843195]}},{"type":"Feature","properties":{"OBJECTID":2029947,"LSN":"1381 DUBLIN RD","POI_NAME":"Alzheimer's Association ","POI_TYPE":"Office - Non-Profit","POI_SOURCE":null},"geometry":{"type":"Point","coordinates":[-83.06431106134819,39.981936305288386]}},{"type":"Feature","properties":{"OBJECTID":2029953,"LSN":"3055 N HIGH ST","POI_NAME":"The Law Office of Tom Somos","POI_TYPE":"Office - Corporate","POI_SOURCE":null},"geometry":{"type":"Point","coordinates":[-83.01432995026731,40.024271131909806]}},{"type":"Feature","properties":{"OBJECTID":2029954,"LSN":"4000 MORSE CROSSING","POI_NAME":"Chase Bank","POI_TYPE":"Office - Bank","POI_SOURCE":null},"geometry":{"type":"Point","coordinates":[-82.9193762721447,40.05169565698379]}},{"type":"Feature","properties":{"OBJECTID":2029964,"LSN":"1429 KING AVE","POI_NAME":"First Ohio Planning","POI_TYPE":"Office - Corporate","POI_SOURCE":null},"geometry":{"type":"Point","coordinates":[-83.04521254844494,39.991505663422494]}},{"type":"Feature","properties":{"OBJECTID":2029971,"LSN":"1055 GIBBARD AVE","POI_NAME":"Brisk Heat Thermal Corp","POI_TYPE":"Office - Corporate","POI_SOURCE":null},"geometry":{"type":"Point","coordinates":[-82.97623567756102,39.98333691549133]}},{"type":"Feature","properties":{"OBJECTID":2029973,"LSN":"1250 MEMORY LN","POI_NAME":"A Special Wish Foundation","POI_TYPE":"Office - Non-Profit","POI_SOURCE":null},"geometry":{"type":"Point","coordinates":[-82.94657757982279,39.943409523780474]}},{"type":"Feature","properties":{"OBJECTID":2029976,"LSN":"2141 E DUBLIN-GRANVILLE RD","POI_NAME":"Huntington Bank","POI_TYPE":"Office - Bank","POI_SOURCE":null},"geometry":{"type":"Point","coordinates":[-82.9599883459088,40.08577523274333]}},{"type":"Feature","properties":{"OBJECTID":2029982,"LSN":"2635 INTERNATIONAL ST","POI_NAME":"Univeral Intermodal Service","POI_TYPE":"Office - Corporate","POI_SOURCE":null},"geometry":{"type":"Point","coordinates":[-83.13192714279675,40.006221567295185]}},{"type":"Feature","properties":{"OBJECTID":2029991,"LSN":"695 BRYDEN RD","POI_NAME":"Abramson & O'Connell ","POI_TYPE":"Office - Corporate","POI_SOURCE":null},"geometry":{"type":"Point","coordinates":[-82.9813482642934,39.96050911008885]}},{"type":"Feature","properties":{"OBJECTID":2029993,"LSN":"200 OAK ST Unit 5","POI_NAME":"Trading Phrases","POI_TYPE":"Office - Corporate","POI_SOURCE":null},"geometry":{"type":"Point","coordinates":[-83.00551070988168,40.12655800123566]}},{"type":"Feature","properties":{"OBJECTID":2030003,"LSN":"1041 JOYCE AVE","POI_NAME":"IH Schlezinger","POI_TYPE":"Office - Corporate","POI_SOURCE":null},"geometry":{"type":"Point","coordinates":[-82.96939442206941,39.98751516091082]}},{"type":"Feature","properties":{"OBJECTID":2030024,"LSN":"870 KADERLY DR","POI_NAME":"MetaMateria","POI_TYPE":"Office - Corporate","POI_SOURCE":null},"geometry":{"type":"Point","coordinates":[-83.10425264319422,39.97240106916049]}},{"type":"Feature","properties":{"OBJECTID":2030038,"LSN":"4315 DONLYN CT","POI_NAME":"American Family Insurance","POI_TYPE":"Office - Corporate","POI_SOURCE":null},"geometry":{"type":"Point","coordinates":[-82.88384230908038,39.9265399476021]}},{"type":"Feature","properties":{"OBJECTID":2030039,"LSN":"360 S 3RD ST","POI_NAME":"United Way of Central Ohio","POI_TYPE":"Office - Non-Profit","POI_SOURCE":null},"geometry":{"type":"Point","coordinates":[-82.99627041183608,39.954975773036125]}},{"type":"Feature","properties":{"OBJECTID":2030055,"LSN":"7949 N HIGH ST","POI_NAME":"Web Solutions Graphic Design","POI_TYPE":"Office - Corporate","POI_SOURCE":null},"geometry":{"type":"Point","coordinates":[-83.01702848136256,40.12578610842901]}},{"type":"Feature","properties":{"OBJECTID":2030057,"LSN":"2290 S HAMILTON RD","POI_NAME":"Huntington Bank","POI_TYPE":"Office - Bank","POI_SOURCE":null},"geometry":{"type":"Point","coordinates":[-82.87875463648788,39.92728396841743]}},{"type":"Feature","properties":{"OBJECTID":2030059,"LSN":"1580 CLARA ST","POI_NAME":"Columbus Architectural Salvage","POI_TYPE":"Office - Corporate","POI_SOURCE":null},"geometry":{"type":"Point","coordinates":[-82.98640457069878,39.99687828289771]}},{"type":"Feature","properties":{"OBJECTID":2030064,"LSN":"322 MT VERNON AVE","POI_NAME":"Ballet Met","POI_TYPE":"Office - Corporate","POI_SOURCE":null},"geometry":{"type":"Point","coordinates":[-82.99277102368619,39.969446584026116]}},{"type":"Feature","properties":{"OBJECTID":2030069,"LSN":"2503 SUMMIT ST","POI_NAME":"Beucler Company CPA","POI_TYPE":"Office - Corporate","POI_SOURCE":null},"geometry":{"type":"Point","coordinates":[-83.0003057426378,40.01467339905492]}},{"type":"Feature","properties":{"OBJECTID":2030072,"LSN":"830 W BROAD ST","POI_NAME":"Anthony Gurvis Law Office","POI_TYPE":"Office - Corporate","POI_SOURCE":null},"geometry":{"type":"Point","coordinates":[-83.02276289946076,39.95965110397777]}},{"type":"Feature","properties":{"OBJECTID":2030092,"LSN":"4800 ROBERTS RD","POI_NAME":"Kimball Midwest","POI_TYPE":"Office - Corporate","POI_SOURCE":null},"geometry":{"type":"Point","coordinates":[-83.13535571533562,40.00405359333162]}},{"type":"Feature","properties":{"OBJECTID":2030112,"LSN":"7917 STATION ST","POI_NAME":"Mackenco","POI_TYPE":"Office - Corporate","POI_SOURCE":null},"geometry":{"type":"Point","coordinates":[-83.005136421674,40.12653907823338]}},{"type":"Feature","properties":{"OBJECTID":2030115,"LSN":"2740 AIRPORT DR","POI_NAME":"IT Consulting and Solutions for Central Ohio","POI_TYPE":"Office - Corporate","POI_SOURCE":null},"geometry":{"type":"Point","coordinates":[-82.9350310379832,39.9967993518113]}},{"type":"Feature","properties":{"OBJECTID":2030131,"LSN":"2295 E LIVINGSTON AVE","POI_NAME":"Rodier Law Offices","POI_TYPE":"Office - Corporate","POI_SOURCE":null},"geometry":{"type":"Point","coordinates":[-82.93564849876022,39.94775508843344]}},{"type":"Feature","properties":{"OBJECTID":2030133,"LSN":"831 PARSONS AVE","POI_NAME":"Parsons Avenue Merchants Association","POI_TYPE":"Office - Corporate","POI_SOURCE":null},"geometry":{"type":"Point","coordinates":[-82.98287966225658,39.94679055684215]}},{"type":"Feature","properties":{"OBJECTID":2030145,"LSN":"640 S FRONT ST","POI_NAME":"Grange Insurance Claims","POI_TYPE":"Office - Corporate","POI_SOURCE":null},"geometry":{"type":"Point","coordinates":[-82.9996881057998,39.949100700720045]}},{"type":"Feature","properties":{"OBJECTID":2030161,"LSN":"5378 ROBERTS RD","POI_NAME":"Salvation Army","POI_TYPE":"Office - Non-Profit","POI_SOURCE":null},"geometry":{"type":"Point","coordinates":[-83.15206771813791,40.00430511965998]}},{"type":"Feature","properties":{"OBJECTID":2030163,"LSN":"25 E KOSSUTH ST","POI_NAME":"Grey Jones & Associates","POI_TYPE":"Office - Corporate","POI_SOURCE":null},"geometry":{"type":"Point","coordinates":[-82.99656970704679,39.94544316249713]}},{"type":"Feature","properties":{"OBJECTID":2030165,"LSN":"5353 FISHER RD","POI_NAME":"Yazki North America","POI_TYPE":"Office - Corporate","POI_SOURCE":null},"geometry":{"type":"Point","coordinates":[-83.1434621314651,39.97296874496629]}},{"type":"Feature","properties":{"OBJECTID":2030180,"LSN":"2191 CITYGATE DR","POI_NAME":"Sophisticated Systems","POI_TYPE":"Office - Corporate","POI_SOURCE":null},"geometry":{"type":"Point","coordinates":[-82.91910065591772,40.013487931833275]}},{"type":"Feature","properties":{"OBJECTID":2030187,"LSN":"7400 SKYLINE DR E","POI_NAME":"US Tank Alliance Environmental Program","POI_TYPE":"Office - Corporate","POI_SOURCE":null},"geometry":{"type":"Point","coordinates":[-83.08003393014964,40.1067189057263]}},{"type":"Feature","properties":{"OBJECTID":2030209,"LSN":"3041 14TH AVE","POI_NAME":"Telos Field Engineering","POI_TYPE":"Office - Corporate","POI_SOURCE":null},"geometry":{"type":"Point","coordinates":[-82.92427534129192,39.992930147610544]}},{"type":"Feature","properties":{"OBJECTID":2030214,"LSN":"4380 N HIGH ST","POI_NAME":"WesBanco","POI_TYPE":"Office - Bank","POI_SOURCE":null},"geometry":{"type":"Point","coordinates":[-83.01989090967444,40.05155703250963]}},{"type":"Feature","properties":{"OBJECTID":2030244,"LSN":"2121 CITYGATE DR","POI_NAME":"Direct Resource","POI_TYPE":"Office - Corporate","POI_SOURCE":null},"geometry":{"type":"Point","coordinates":[-82.91647232348612,40.01314881663545]}},{"type":"Feature","properties":{"OBJECTID":2030254,"LSN":"1515 HARRISBURG PIKE","POI_NAME":"Columbus Col Weld Corporation","POI_TYPE":"Office - Corporate","POI_SOURCE":null},"geometry":{"type":"Point","coordinates":[-83.05753834815572,39.92658872525711]}},{"type":"Feature","properties":{"OBJECTID":2030256,"LSN":"4766 KENNY RD","POI_NAME":"The Cleary Company","POI_TYPE":"Office - Corporate","POI_SOURCE":null},"geometry":{"type":"Point","coordinates":[-83.04752218290025,40.06128727677043]}},{"type":"Feature","properties":{"OBJECTID":2030267,"LSN":"333 W NATIONWIDE BLVD","POI_NAME":"Sbc Advertising","POI_TYPE":"Office - Corporate","POI_SOURCE":null},"geometry":{"type":"Point","coordinates":[-83.01068260451743,39.96755973489295]}},{"type":"Feature","properties":{"OBJECTID":2030276,"LSN":"1699 HOLT RD","POI_NAME":"PNC Bank","POI_TYPE":"Office - Bank","POI_SOURCE":null},"geometry":{"type":"Point","coordinates":[-83.12047362189747,39.91723641759246]}},{"type":"Feature","properties":{"OBJECTID":2030288,"LSN":"57 E MAIN ST","POI_NAME":"Ohio Housing Finance Agency","POI_TYPE":"Office - Corporate","POI_SOURCE":null},"geometry":{"type":"Point","coordinates":[-82.9978448243265,39.95615502915369]}},{"type":"Feature","properties":{"OBJECTID":2030292,"LSN":"577 S HIGH ST","POI_NAME":"Security First ","POI_TYPE":"Office - Corporate","POI_SOURCE":null},"geometry":{"type":"Point","coordinates":[-82.99856965442702,39.95028545923524]}},{"type":"Feature","properties":{"OBJECTID":2030306,"LSN":"2185 CITYGATE DR","POI_NAME":"Sterling Oil Portraits","POI_TYPE":"Office - Corporate","POI_SOURCE":null},"geometry":{"type":"Point","coordinates":[-82.91873198347662,40.0134799686847]}},{"type":"Feature","properties":{"OBJECTID":2030307,"LSN":"2140 CITYGATE DR","POI_NAME":"USA Today","POI_TYPE":"Office - Corporate","POI_SOURCE":null},"geometry":{"type":"Point","coordinates":[-82.91650509791847,40.01486208577238]}},{"type":"Feature","properties":{"OBJECTID":2030317,"LSN":"1781 WESTBELT DR","POI_NAME":"Southwest Greens of Ohio","POI_TYPE":"Office - Corporate","POI_SOURCE":null},"geometry":{"type":"Point","coordinates":[-83.12504751917236,39.98988887676625]}},{"type":"Feature","properties":{"OBJECTID":2030319,"LSN":"6880 TUSSING RD","POI_NAME":"ContactLet's Talk Wallick Communities","POI_TYPE":"Office - Corporate","POI_SOURCE":null},"geometry":{"type":"Point","coordinates":[-82.81605850902203,39.92706338990953]}},{"type":"Feature","properties":{"OBJECTID":2030320,"LSN":"540 JACK GIBBS BLVD","POI_NAME":"WCBE Radio 90.5","POI_TYPE":"Office - Corporate","POI_SOURCE":null},"geometry":{"type":"Point","coordinates":[-82.9867668119646,39.974563471766416]}},{"type":"Feature","properties":{"OBJECTID":2030354,"LSN":"3023 INDIANOLA AVE","POI_NAME":"James Jackson Inc CPA","POI_TYPE":"Office - Corporate","POI_SOURCE":null},"geometry":{"type":"Point","coordinates":[-83.00169399161723,40.02535246548181]}},{"type":"Feature","properties":{"OBJECTID":2030361,"LSN":"700 S HIGH ST","POI_NAME":"Bennett Insurance","POI_TYPE":"Office - Corporate","POI_SOURCE":null},"geometry":{"type":"Point","coordinates":[-82.99766399523236,39.947840581752004]}},{"type":"Feature","properties":{"OBJECTID":2030365,"LSN":"3550 W DUBLIN-GRANVILLE RD","POI_NAME":"Union Savings Bank","POI_TYPE":"Office - Bank","POI_SOURCE":null},"geometry":{"type":"Point","coordinates":[-83.08434975559976,40.093833523707055]}},{"type":"Feature","properties":{"OBJECTID":2030400,"LSN":"2355 WESTBROOKE DR","POI_NAME":"SITECH Ohio","POI_TYPE":"Office - Corporate","POI_SOURCE":null},"geometry":{"type":"Point","coordinates":[-83.11397753300156,40.00081805609849]}},{"type":"Feature","properties":{"OBJECTID":2030436,"LSN":"4143 N HIGH ST","POI_NAME":"Taylor Bookkeeping Service ","POI_TYPE":"Office - Corporate","POI_SOURCE":null},"geometry":{"type":"Point","coordinates":[-83.02026686561014,40.04651342274929]}},{"type":"Feature","properties":{"OBJECTID":2030437,"LSN":"3063 14TH AVE","POI_NAME":"EMF Telecom","POI_TYPE":"Office - Corporate","POI_SOURCE":null},"geometry":{"type":"Point","coordinates":[-82.92381053620794,39.993379285969276]}},{"type":"Feature","properties":{"OBJECTID":2030441,"LSN":"3003 E MAIN ST","POI_NAME":"Huntington Bank","POI_TYPE":"Office - Bank","POI_SOURCE":null},"geometry":{"type":"Point","coordinates":[-82.91844152950041,39.95646506725273]}},{"type":"Feature","properties":{"OBJECTID":2030456,"LSN":"3719 INTERCHANGE RD","POI_NAME":"Korman Construction","POI_TYPE":"Office - Corporate","POI_SOURCE":null},"geometry":{"type":"Point","coordinates":[-83.10364303033958,39.9732540514355]}},{"type":"Feature","properties":{"OBJECTID":2030461,"LSN":"2120 E 5TH AVE","POI_NAME":"Rosedale Mennonite Missions & International Center","POI_TYPE":"Office - Non-Profit","POI_SOURCE":null},"geometry":{"type":"Point","coordinates":[-82.94768806787074,39.98652501332007]}},{"type":"Feature","properties":{"OBJECTID":2030467,"LSN":"518 E BROAD ST","POI_NAME":"State Automobile Mutual Insurance Company","POI_TYPE":"Office - Corporate","POI_SOURCE":null},"geometry":{"type":"Point","coordinates":[-82.98686718093718,39.963994513680284]}},{"type":"Feature","properties":{"OBJECTID":2030470,"LSN":"27 EUCLID AVE","POI_NAME":"CWA Local 4501 ","POI_TYPE":"Office - Corporate","POI_SOURCE":null},"geometry":{"type":"Point","coordinates":[-83.00545154902738,39.99118122527416]}},{"type":"Feature","properties":{"OBJECTID":2030473,"LSN":"100 NORTH WOODS BLVD Unit C","POI_NAME":"Residential Safety Services ","POI_TYPE":"Office - Corporate","POI_SOURCE":null},"geometry":{"type":"Point","coordinates":[-83.01964925307904,40.12812155687586]}},{"type":"Feature","properties":{"OBJECTID":2030476,"LSN":"7420 WORTHINGTON-GALENA RD","POI_NAME":"Computer Site Columbus","POI_TYPE":"Office - Corporate","POI_SOURCE":null},"geometry":{"type":"Point","coordinates":[-82.99110757746394,40.114801780906554]}},{"type":"Feature","properties":{"OBJECTID":2030478,"LSN":"942 S GALLOWAY RD","POI_NAME":"Allstate Insurance","POI_TYPE":"Office - Corporate","POI_SOURCE":null},"geometry":{"type":"Point","coordinates":[-83.15822190746235,39.931096350316146]}},{"type":"Feature","properties":{"OBJECTID":2030509,"LSN":"1783 KENNY RD","POI_NAME":"Ketchum & Walton Company","POI_TYPE":"Office - Corporate","POI_SOURCE":null},"geometry":{"type":"Point","coordinates":[-83.03555833071901,39.995706156268284]}},{"type":"Feature","properties":{"OBJECTID":2030520,"LSN":"2675 CORPORATE EXCHANGE DR","POI_NAME":"Cass Logistics ","POI_TYPE":"Office - Corporate","POI_SOURCE":null},"geometry":{"type":"Point","coordinates":[-82.9454142256685,40.10190911080237]}},{"type":"Feature","properties":{"OBJECTID":2030524,"LSN":"287 SIEBERT ST","POI_NAME":"Hutchison Media Consultants","POI_TYPE":"Office - Corporate","POI_SOURCE":null},"geometry":{"type":"Point","coordinates":[-82.98896504331346,39.94282048926626]}},{"type":"Feature","properties":{"OBJECTID":2030526,"LSN":"1417 OAKLAND PARK AVE","POI_NAME":"Comtech","POI_TYPE":"Office - Corporate","POI_SOURCE":null},"geometry":{"type":"Point","coordinates":[-82.975320663406,40.03154193556635]}},{"type":"Feature","properties":{"OBJECTID":2030535,"LSN":"3460 S HIGH ST","POI_NAME":"Fifth Third Bank","POI_TYPE":"Office - Bank","POI_SOURCE":null},"geometry":{"type":"Point","coordinates":[-82.99656421408235,39.890971466250534]}},{"type":"Feature","properties":{"OBJECTID":2030536,"LSN":"3368 OLENTANGY RIVER RD","POI_NAME":"Russell E Lamm Law Office","POI_TYPE":"Office - Corporate","POI_SOURCE":null},"geometry":{"type":"Point","coordinates":[-83.02735977098737,40.02761457196439]}},{"type":"Feature","properties":{"OBJECTID":2030539,"LSN":"202 OAK ST Unit 6","POI_NAME":"The Redirections Group","POI_TYPE":"Office - Corporate","POI_SOURCE":null},"geometry":{"type":"Point","coordinates":[-83.00550407667842,40.126491738623]}},{"type":"Feature","properties":{"OBJECTID":2030544,"LSN":"5300 N HAMILTON RD","POI_NAME":"Key Bank","POI_TYPE":"Office - Bank","POI_SOURCE":null},"geometry":{"type":"Point","coordinates":[-82.86244809564282,40.06490187371578]}},{"type":"Feature","properties":{"OBJECTID":2030553,"LSN":"583 FRANKLIN AVE","POI_NAME":"Junior League of Columbus","POI_TYPE":"Office - Non-Profit","POI_SOURCE":null},"geometry":{"type":"Point","coordinates":[-82.98454962663139,39.96173401429329]}},{"type":"Feature","properties":{"OBJECTID":2030561,"LSN":"4175 N HIGH ST","POI_NAME":"Jeri L Jones CPA","POI_TYPE":"Office - Corporate","POI_SOURCE":null},"geometry":{"type":"Point","coordinates":[-83.0203896719011,40.047171705195346]}},{"type":"Feature","properties":{"OBJECTID":2030565,"LSN":"1008 E LIVINGSTON AVE","POI_NAME":"Just For Today","POI_TYPE":"Office - Non-Profit","POI_SOURCE":null},"geometry":{"type":"Point","coordinates":[-82.97100312103062,39.949829735777]}},{"type":"Feature","properties":{"OBJECTID":2030566,"LSN":"523 S 3RD ST","POI_NAME":"Sam Shamansky Legal Services","POI_TYPE":"Office - Corporate","POI_SOURCE":null},"geometry":{"type":"Point","coordinates":[-82.99603593535089,39.951611149945464]}},{"type":"Feature","properties":{"OBJECTID":2030569,"LSN":"488 TRADE RD","POI_NAME":"Mickes Quality Machining","POI_TYPE":"Office - Corporate","POI_SOURCE":null},"geometry":{"type":"Point","coordinates":[-83.09016154086676,39.964243150463474]}},{"type":"Feature","properties":{"OBJECTID":2030580,"LSN":"7552 RELIANCE ST","POI_NAME":"Electric Power and Design","POI_TYPE":"Office - Corporate","POI_SOURCE":null},"geometry":{"type":"Point","coordinates":[-82.98597505643292,40.11751310200808]}},{"type":"Feature","properties":{"OBJECTID":2030587,"LSN":"2626 PORT RD","POI_NAME":"T-Mobile Port In Carrier","POI_TYPE":"Office - Corporate","POI_SOURCE":null},"geometry":{"type":"Point","coordinates":[-82.92956268246368,39.82583625425105]}},{"type":"Feature","properties":{"OBJECTID":2030591,"LSN":"1631 NORTHWEST BLVD","POI_NAME":"Walcott & Associates ","POI_TYPE":"Office - Corporate","POI_SOURCE":null},"geometry":{"type":"Point","coordinates":[-83.0411520052325,39.9916391278316]}},{"type":"Feature","properties":{"OBJECTID":2030605,"LSN":"2686 SAWBURY BLVD","POI_NAME":"Retail Data Systems","POI_TYPE":"Office - Corporate","POI_SOURCE":null},"geometry":{"type":"Point","coordinates":[-83.08775503130133,40.114218494118354]}},{"type":"Feature","properties":{"OBJECTID":2030610,"LSN":"1604 CLARA AVE","POI_NAME":"Titus Graphic Art","POI_TYPE":"Office - Corporate","POI_SOURCE":null},"geometry":{"type":"Point","coordinates":[-82.9863723396219,39.99737254437886]}},{"type":"Feature","properties":{"OBJECTID":2030613,"LSN":"1588 CLARA ST","POI_NAME":"Sms Sheet Metal Shop","POI_TYPE":"Office - Corporate","POI_SOURCE":null},"geometry":{"type":"Point","coordinates":[-82.9863914283939,39.99704030212295]}},{"type":"Feature","properties":{"OBJECTID":2030632,"LSN":"4669 N HIGH ST","POI_NAME":"Controguerra & Associates ","POI_TYPE":"Office - Corporate","POI_SOURCE":null},"geometry":{"type":"Point","coordinates":[-83.02003129485978,40.05758749843075]}},{"type":"Feature","properties":{"OBJECTID":2030643,"LSN":"3505 SULLIVANT AVE","POI_NAME":"Key Bank","POI_TYPE":"Office - Bank","POI_SOURCE":null},"geometry":{"type":"Point","coordinates":[-83.09206411338123,39.94243451888625]}},{"type":"Feature","properties":{"OBJECTID":2030649,"LSN":"5203 RENNER RD","POI_NAME":"Jasper Engines & Transmissions","POI_TYPE":"Office - Corporate","POI_SOURCE":null},"geometry":{"type":"Point","coordinates":[-83.14184635371379,39.981813597028]}},{"type":"Feature","properties":{"OBJECTID":2030660,"LSN":"303 W NATIONWIDE BLVD","POI_NAME":"Business First","POI_TYPE":"Office - Corporate","POI_SOURCE":null},"geometry":{"type":"Point","coordinates":[-83.00989108677665,39.967669310207675]}},{"type":"Feature","properties":{"OBJECTID":2030669,"LSN":"1351 KING AVE","POI_NAME":"Browne Group Architects","POI_TYPE":"Office - Corporate","POI_SOURCE":null},"geometry":{"type":"Point","coordinates":[-83.0430312369408,39.991422438113425]}},{"type":"Feature","properties":{"OBJECTID":2030672,"LSN":"3203 E 11TH AVE","POI_NAME":"Cap City Direct","POI_TYPE":"Office - Corporate","POI_SOURCE":null},"geometry":{"type":"Point","coordinates":[-82.919095870895,39.99012860756193]}},{"type":"Feature","properties":{"OBJECTID":2030683,"LSN":"384 MORRISON RD","POI_NAME":"Hunters Ridge Apartments","POI_TYPE":"Office - Bank","POI_SOURCE":null},"geometry":{"type":"Point","coordinates":[-82.85573252663303,39.986094593900994]}},{"type":"Feature","properties":{"OBJECTID":2030693,"LSN":"6465 BUSCH BLVD","POI_NAME":"AVI Food Systems","POI_TYPE":"Office - Corporate","POI_SOURCE":null},"geometry":{"type":"Point","coordinates":[-82.99423579861629,40.097545365626964]}},{"type":"Feature","properties":{"OBJECTID":2030696,"LSN":"2385 S HAMILTON RD","POI_NAME":"PNC Bank","POI_TYPE":"Office - Bank","POI_SOURCE":null},"geometry":{"type":"Point","coordinates":[-82.88022579946598,39.92636505413604]}},{"type":"Feature","properties":{"OBJECTID":2030698,"LSN":"2216 REFUGEE RD","POI_NAME":"Capitol Tunneling","POI_TYPE":"Office - Corporate","POI_SOURCE":null},"geometry":{"type":"Point","coordinates":[-82.94272106925851,39.91921990571881]}},{"type":"Feature","properties":{"OBJECTID":2030706,"LSN":"2555 INTERNATIONAL ST","POI_NAME":"Central Power Systems","POI_TYPE":"Office - Corporate","POI_SOURCE":null},"geometry":{"type":"Point","coordinates":[-83.13163076293996,40.00503450100688]}},{"type":"Feature","properties":{"OBJECTID":2030708,"LSN":"982 S FRONT ST","POI_NAME":"WSA Studio","POI_TYPE":"Office - Corporate","POI_SOURCE":null},"geometry":{"type":"Point","coordinates":[-82.99792407723977,39.941932904502245]}},{"type":"Feature","properties":{"OBJECTID":2030717,"LSN":"1266 DUBLIN RD","POI_NAME":"Test Acct 10","POI_TYPE":"Office - Corporate","POI_SOURCE":null},"geometry":{"type":"Point","coordinates":[-83.05856854547304,39.976514578585785]}},{"type":"Feature","properties":{"OBJECTID":2030719,"LSN":"5342 HAMILTON RD","POI_NAME":"Fifth Third Bank ","POI_TYPE":"Office - Bank","POI_SOURCE":null},"geometry":{"type":"Point","coordinates":[-82.86225917846004,40.06540842145736]}},{"type":"Feature","properties":{"OBJECTID":2030724,"LSN":"5665 N HAMILTON RD","POI_NAME":"Pathways Financial Credit Union","POI_TYPE":"Office - Bank","POI_SOURCE":null},"geometry":{"type":"Point","coordinates":[-82.86316341987526,40.071581896886926]}},{"type":"Feature","properties":{"OBJECTID":2030729,"LSN":"4321 DONLYN CT","POI_NAME":"Mid Atlantic Logistics Unlimited","POI_TYPE":"Office - Corporate","POI_SOURCE":null},"geometry":{"type":"Point","coordinates":[-82.88386685876274,39.926465746774554]}},{"type":"Feature","properties":{"OBJECTID":2030750,"LSN":"427 E TOWN ST","POI_NAME":"Miller Van Order Interior Design","POI_TYPE":"Office - Corporate","POI_SOURCE":null},"geometry":{"type":"Point","coordinates":[-82.98851142577423,39.9599771363726]}},{"type":"Feature","properties":{"OBJECTID":2030757,"LSN":"787 HARRISON DR","POI_NAME":"Gold Medal Products","POI_TYPE":"Office - Corporate","POI_SOURCE":null},"geometry":{"type":"Point","coordinates":[-83.07520886241653,39.970246537454635]}},{"type":"Feature","properties":{"OBJECTID":2030781,"LSN":"1331 S HIGH ST","POI_NAME":"Lorz Communications","POI_TYPE":"Office - Corporate","POI_SOURCE":null},"geometry":{"type":"Point","coordinates":[-82.99626520939042,39.93482934404755]}},{"type":"Feature","properties":{"OBJECTID":2030790,"LSN":"2588 BILLINGSLEY RD","POI_NAME":"Integrated Communications","POI_TYPE":"Office - Corporate","POI_SOURCE":null},"geometry":{"type":"Point","coordinates":[-83.08500834457868,40.112848683170775]}},{"type":"Feature","properties":{"OBJECTID":2030812,"LSN":"245 MT VERNON AVE","POI_NAME":"The Eischen Group","POI_TYPE":"Office - Corporate","POI_SOURCE":null},"geometry":{"type":"Point","coordinates":[-82.99513493631628,39.96933517531905]}},{"type":"Feature","properties":{"OBJECTID":2030828,"LSN":"1830 BETHEL RD","POI_NAME":"1830 Professional Building","POI_TYPE":"Office - Corporate","POI_SOURCE":null},"geometry":{"type":"Point","coordinates":[-83.06728783617515,40.06459745211631]}},{"type":"Feature","properties":{"OBJECTID":2030834,"LSN":"1491 COLLEGE AVE","POI_NAME":"Young Adult Services","POI_TYPE":"Office - Non-Profit","POI_SOURCE":null},"geometry":{"type":"Point","coordinates":[-82.93126771327198,39.938776444978906]}},{"type":"Feature","properties":{"OBJECTID":2030844,"LSN":"1663 WATKINS RD","POI_NAME":"Techused Asset Recovery/Recycling","POI_TYPE":"Office - Corporate","POI_SOURCE":null},"geometry":{"type":"Point","coordinates":[-82.95141524346357,39.90135342800933]}},{"type":"Feature","properties":{"OBJECTID":2030849,"LSN":"8787 ORION PL","POI_NAME":"McGraw-Hill Education","POI_TYPE":"Office - Corporate","POI_SOURCE":null},"geometry":{"type":"Point","coordinates":[-82.96917904529614,40.14539337506274]}},{"type":"Feature","properties":{"OBJECTID":2030850,"LSN":"165 N 5TH ST","POI_NAME":"Architectural Alliance","POI_TYPE":"Office - Corporate","POI_SOURCE":null},"geometry":{"type":"Point","coordinates":[-82.99569907018315,39.9663927002613]}},{"type":"Feature","properties":{"OBJECTID":2030854,"LSN":"5164 SINCLAIR RD","POI_NAME":"The Bradley Company","POI_TYPE":"Office - Corporate","POI_SOURCE":null},"geometry":{"type":"Point","coordinates":[-82.9975736182787,40.07121875217629]}},{"type":"Feature","properties":{"OBJECTID":2030856,"LSN":"1180 DUBLIN RD","POI_NAME":"Ohio Operating Engineers","POI_TYPE":"Office - Corporate","POI_SOURCE":null},"geometry":{"type":"Point","coordinates":[-83.05416303233191,39.976010696348766]}},{"type":"Feature","properties":{"OBJECTID":2030864,"LSN":"3150 E LIVINGSTON AVE","POI_NAME":"31 Fifty ","POI_TYPE":"Office - Corporate","POI_SOURCE":null},"geometry":{"type":"Point","coordinates":[-82.91241399552707,39.94701550753236]}},{"type":"Feature","properties":{"OBJECTID":2030873,"LSN":"1075 W 5TH AVE","POI_NAME":"The Fred D Pfening Company","POI_TYPE":"Office - Corporate","POI_SOURCE":null},"geometry":{"type":"Point","coordinates":[-83.03483311538827,39.98816037729041]}},{"type":"Feature","properties":{"OBJECTID":2030881,"LSN":"2455 HILLIARD & ROME RD","POI_NAME":"Fifth Third Bank","POI_TYPE":"Office - Bank","POI_SOURCE":null},"geometry":{"type":"Point","coordinates":[-83.15413255939161,40.00105283684343]}},{"type":"Feature","properties":{"OBJECTID":2030897,"LSN":"533 S 3RD ST","POI_NAME":"Mike Moses Attorney ","POI_TYPE":"Office - Corporate","POI_SOURCE":null},"geometry":{"type":"Point","coordinates":[-82.99602762607482,39.95144647331258]}},{"type":"Feature","properties":{"OBJECTID":2030900,"LSN":"240 OUTERBELT ST","POI_NAME":"Joseph's Coat of Central Ohio ","POI_TYPE":"Office - Non-Profit","POI_SOURCE":null},"geometry":{"type":"Point","coordinates":[-82.83005169715568,39.98597470424847]}},{"type":"Feature","properties":{"OBJECTID":2030903,"LSN":"4477 E 5TH AVE","POI_NAME":"Head","POI_TYPE":"Office - Corporate","POI_SOURCE":null},"geometry":{"type":"Point","coordinates":[-82.88345810530204,39.98661814217626]}},{"type":"Feature","properties":{"OBJECTID":2030909,"LSN":"1435 W BROAD ST","POI_NAME":"PNC Bank","POI_TYPE":"Office - Bank","POI_SOURCE":null},"geometry":{"type":"Point","coordinates":[-83.03855725355524,39.95710075868331]}},{"type":"Feature","properties":{"OBJECTID":2030920,"LSN":"745 N JAMES RD","POI_NAME":"Seabolt & Co","POI_TYPE":"Office - Corporate","POI_SOURCE":null},"geometry":{"type":"Point","coordinates":[-82.90616106597449,39.98710426734307]}},{"type":"Feature","properties":{"OBJECTID":2030938,"LSN":"24 E MOUND ST","POI_NAME":"Hatcher & Associates","POI_TYPE":"Office - Corporate","POI_SOURCE":null},"geometry":{"type":"Point","coordinates":[-82.99852006543563,39.95501290003814]}},{"type":"Feature","properties":{"OBJECTID":2030942,"LSN":"4319 INDIANOLA AVE","POI_NAME":"Benchmark Enviromental Labs","POI_TYPE":"Office - Corporate","POI_SOURCE":null},"geometry":{"type":"Point","coordinates":[-83.0005633807585,40.052770017275044]}},{"type":"Feature","properties":{"OBJECTID":2030944,"LSN":"2700 AIRPORT DR","POI_NAME":"Columbus Realltors","POI_TYPE":"Office - Corporate","POI_SOURCE":null},"geometry":{"type":"Point","coordinates":[-82.93503198674004,39.995133568579256]}},{"type":"Feature","properties":{"OBJECTID":2030955,"LSN":"700 NEW YORK AVE","POI_NAME":"Premiums & Promotions","POI_TYPE":"Office - Corporate","POI_SOURCE":null},"geometry":{"type":"Point","coordinates":[-82.98648913412781,39.9875924272969]}},{"type":"Feature","properties":{"OBJECTID":2030965,"LSN":"1669 W 5TH AVE","POI_NAME":"First Merchants Bank ","POI_TYPE":"Office - Bank","POI_SOURCE":null},"geometry":{"type":"Point","coordinates":[-83.05115145467893,39.98881785767558]}},{"type":"Feature","properties":{"OBJECTID":2030973,"LSN":"556 E TOWN ST","POI_NAME":"Hammond Sewards & Williams Attorney","POI_TYPE":"Office - Corporate","POI_SOURCE":null},"geometry":{"type":"Point","coordinates":[-82.98516335058821,39.96072948409377]}},{"type":"Feature","properties":{"OBJECTID":2030978,"LSN":"2353 WESTBROOKE DR","POI_NAME":"Cable Technology.","POI_TYPE":"Office - Corporate","POI_SOURCE":null},"geometry":{"type":"Point","coordinates":[-83.1139084638525,40.000854570110235]}},{"type":"Feature","properties":{"OBJECTID":2030992,"LSN":"947 WORTHINGTON WOODS LOOP RD","POI_NAME":"Lucas Financial Services","POI_TYPE":"Office - Corporate","POI_SOURCE":null},"geometry":{"type":"Point","coordinates":[-82.99058962599321,40.11891051060348]}},{"type":"Feature","properties":{"OBJECTID":2030999,"LSN":"4030 EASTON STATION Unit 300","POI_NAME":"Fahlgren Mortine","POI_TYPE":"Office - Corporate","POI_SOURCE":null},"geometry":{"type":"Point","coordinates":[-82.91358659908329,40.049941427172456]}},{"type":"Feature","properties":{"OBJECTID":2031004,"LSN":"1200 MORSE RD","POI_NAME":"PNC Bank","POI_TYPE":"Office - Bank","POI_SOURCE":null},"geometry":{"type":"Point","coordinates":[-82.98778728902366,40.06161628889535]}},{"type":"Feature","properties":{"OBJECTID":2031006,"LSN":"750 BETHEL RD","POI_NAME":"BMI Federal Credit Union","POI_TYPE":"Office - Bank","POI_SOURCE":null},"geometry":{"type":"Point","coordinates":[-83.03874045548314,40.06348730015048]}},{"type":"Feature","properties":{"OBJECTID":2031008,"LSN":"5766 WESTBOURNE AVE","POI_NAME":"Titan Power Solutions","POI_TYPE":"Office - Corporate","POI_SOURCE":null},"geometry":{"type":"Point","coordinates":[-82.84596554416977,39.98451261799072]}},{"type":"Feature","properties":{"OBJECTID":2031015,"LSN":"1500 BOLTONFIELD ST","POI_NAME":"Citigroup","POI_TYPE":"Office - Corporate","POI_SOURCE":"CBLD1706788"},"geometry":{"type":"Point","coordinates":[-83.12887609495704,39.921992807310026]}},{"type":"Feature","properties":{"OBJECTID":2031020,"LSN":"1616 E DUBLIN-GRANVILLE RD","POI_NAME":"First Merchants Bank","POI_TYPE":"Office - Bank","POI_SOURCE":null},"geometry":{"type":"Point","coordinates":[-82.97486283930705,40.0874954516308]}},{"type":"Feature","properties":{"OBJECTID":2031024,"LSN":"1111 POLARIS PKWY","POI_NAME":"McCoy Center - JP Morgan & Chase","POI_TYPE":"Office - Corporate","POI_SOURCE":null},"geometry":{"type":"Point","coordinates":[-82.9960858588999,40.14208926282174]}},{"type":"Feature","properties":{"OBJECTID":2031033,"LSN":"880 E 11TH AVE","POI_NAME":"Columbus Metropolitan Housing Authority","POI_TYPE":"Office - Non-Profit","POI_SOURCE":null},"geometry":{"type":"Point","coordinates":[-82.98321542325733,39.99405570537113]}},{"type":"Feature","properties":{"OBJECTID":2031048,"LSN":"160 W 5TH AVE","POI_NAME":"Davis Group of Ohio","POI_TYPE":"Office - Corporate","POI_SOURCE":null},"geometry":{"type":"Point","coordinates":[-83.00995663562635,39.98743380465895]}},{"type":"Feature","properties":{"OBJECTID":2031049,"LSN":"2960 MORSE RD","POI_NAME":"Allstate Insurance","POI_TYPE":"Office - Corporate","POI_SOURCE":null},"geometry":{"type":"Point","coordinates":[-82.94109214979404,40.059714568886804]}},{"type":"Feature","properties":{"OBJECTID":2031054,"LSN":"469 BONHAM AVE","POI_NAME":"Streetwerkz","POI_TYPE":"Office - Corporate","POI_SOURCE":null},"geometry":{"type":"Point","coordinates":[-82.99382391659618,39.99320173903105]}},{"type":"Feature","properties":{"OBJECTID":2031066,"LSN":"2724 SAWBURY BLVD","POI_NAME":"Srico","POI_TYPE":"Office - Corporate","POI_SOURCE":null},"geometry":{"type":"Point","coordinates":[-83.08807556174986,40.11491413550684]}},{"type":"Feature","properties":{"OBJECTID":2031070,"LSN":"7737 OLENTANGY RIVER RD","POI_NAME":"Hill Allison & De Weese ","POI_TYPE":"Office - Corporate","POI_SOURCE":null},"geometry":{"type":"Point","coordinates":[-83.03633036207327,40.12243584132423]}},{"type":"Feature","properties":{"OBJECTID":2031072,"LSN":"1880 SCHROCK RD","POI_NAME":"State Farm ","POI_TYPE":"Office - Corporate","POI_SOURCE":null},"geometry":{"type":"Point","coordinates":[-82.96521094403346,40.107270382127815]}},{"type":"Feature","properties":{"OBJECTID":2031082,"LSN":"2166 S 3RD ST","POI_NAME":"Columbus Equipment Company Training Center","POI_TYPE":"Office - Corporate","POI_SOURCE":null},"geometry":{"type":"Point","coordinates":[-82.99303095830659,39.91820080340028]}},{"type":"Feature","properties":{"OBJECTID":2031088,"LSN":"2691 FARMERS DR","POI_NAME":"Capital Procrement ","POI_TYPE":"Office - Corporate","POI_SOURCE":null},"geometry":{"type":"Point","coordinates":[-83.08731737943639,40.10647222478058]}},{"type":"Feature","properties":{"OBJECTID":2031106,"LSN":"845 PARSONS AVE","POI_NAME":"Cental Ohio Community Improvement Corporation","POI_TYPE":"Office - Non-Profit","POI_SOURCE":"CHAN1620979"},"geometry":{"type":"Point","coordinates":[-82.98303083514136,39.946376638024006]}},{"type":"Feature","properties":{"OBJECTID":2031125,"LSN":"4840 N HIGH ST","POI_NAME":"DeFourny Realtors & Company","POI_TYPE":"Office - Corporate","POI_SOURCE":null},"geometry":{"type":"Point","coordinates":[-83.01929426439384,40.061168344939084]}},{"type":"Feature","properties":{"OBJECTID":2031131,"LSN":"20 W POPLAR AVE","POI_NAME":"Orbit Design","POI_TYPE":"Office - Corporate","POI_SOURCE":null},"geometry":{"type":"Point","coordinates":[-83.00362290385675,39.974579849649885]}},{"type":"Feature","properties":{"OBJECTID":2031136,"LSN":"834 BUSCH CT","POI_NAME":"Alexander Enterprises","POI_TYPE":"Office - Corporate","POI_SOURCE":null},"geometry":{"type":"Point","coordinates":[-82.99473867110738,40.09656220924424]}},{"type":"Feature","properties":{"OBJECTID":2031142,"LSN":"2529 FRANKSWAY ST","POI_NAME":"Applied Measurement Professional","POI_TYPE":"Office - Corporate","POI_SOURCE":null},"geometry":{"type":"Point","coordinates":[-82.88185170119166,39.92311493396234]}},{"type":"Feature","properties":{"OBJECTID":2031149,"LSN":"4791 ROBERTS RD","POI_NAME":"Schottenstein Management","POI_TYPE":"Office - Corporate","POI_SOURCE":null},"geometry":{"type":"Point","coordinates":[-83.13504219566667,40.00255916694569]}},{"type":"Feature","properties":{"OBJECTID":2031161,"LSN":"1725 JETWAY BLVD","POI_NAME":"Associated Buiders & Contractors","POI_TYPE":"Office - Corporate","POI_SOURCE":null},"geometry":{"type":"Point","coordinates":[-82.91782002797291,40.00854151086597]}},{"type":"Feature","properties":{"OBJECTID":2031164,"LSN":"2931 E DUBLIN-GRANVILLE RD","POI_NAME":"Dynotec Commercial Complex","POI_TYPE":"Office - Corporate","POI_SOURCE":null},"geometry":{"type":"Point","coordinates":[-82.9383604826725,40.08140538161873]}},{"type":"Feature","properties":{"OBJECTID":2031166,"LSN":"4656 EXECUTIVE DR","POI_NAME":"Executive Investors","POI_TYPE":"Office - Corporate","POI_SOURCE":null},"geometry":{"type":"Point","coordinates":[-83.05896947465766,40.05294864972951]}},{"type":"Feature","properties":{"OBJECTID":2031174,"LSN":"3972 INDIANOLA AVE","POI_NAME":"Operator Training Committee","POI_TYPE":"Office - Non-Profit","POI_SOURCE":null},"geometry":{"type":"Point","coordinates":[-82.99960377134937,40.04550780644693]}},{"type":"Feature","properties":{"OBJECTID":2031180,"LSN":"1291 W MOUND ST","POI_NAME":"Quala","POI_TYPE":"Office - Corporate","POI_SOURCE":null},"geometry":{"type":"Point","coordinates":[-83.03129969259639,39.94426705255779]}},{"type":"Feature","properties":{"OBJECTID":2031183,"LSN":"186 GRACELAND BLVD Unit 22","POI_NAME":"Chase Bank","POI_TYPE":"Office - Bank","POI_SOURCE":null},"geometry":{"type":"Point","coordinates":[-83.02443894098434,40.066388629263024]}},{"type":"Feature","properties":{"OBJECTID":2031193,"LSN":"1147 MT VERNON AVE","POI_NAME":"NA Meetings in Columbus","POI_TYPE":"Office - Corporate","POI_SOURCE":null},"geometry":{"type":"Point","coordinates":[-82.97151858241133,39.972378015341]}},{"type":"Feature","properties":{"OBJECTID":2031199,"LSN":"896 KING AVE","POI_NAME":"Panzera Realty","POI_TYPE":"Office - Corporate","POI_SOURCE":null},"geometry":{"type":"Point","coordinates":[-83.03061675089825,39.991223906115486]}},{"type":"Feature","properties":{"OBJECTID":2031202,"LSN":"3840 FISHER RD","POI_NAME":"Valley Interior Systems","POI_TYPE":"Office - Corporate","POI_SOURCE":null},"geometry":{"type":"Point","coordinates":[-83.10146683066266,39.96796265964388]}},{"type":"Feature","properties":{"OBJECTID":2031203,"LSN":"2300 W MOUND ST","POI_NAME":"Salvation Army","POI_TYPE":"Office - Non-Profit","POI_SOURCE":null},"geometry":{"type":"Point","coordinates":[-83.05913632901115,39.93970691286155]}},{"type":"Feature","properties":{"OBJECTID":2031208,"LSN":"1461 SHOWCASE DR","POI_NAME":"RacePenguin","POI_TYPE":"Office - Corporate","POI_SOURCE":null},"geometry":{"type":"Point","coordinates":[-83.02977798388912,39.98943078966104]}},{"type":"Feature","properties":{"OBJECTID":2031214,"LSN":"2164 HILLIARD & ROME RD","POI_NAME":"First Service Federal Credit Union","POI_TYPE":"Office - Bank","POI_SOURCE":null},"geometry":{"type":"Point","coordinates":[-83.15195296668223,39.994546338476965]}},{"type":"Feature","properties":{"OBJECTID":2031219,"LSN":"1909 ARLINGATE LN","POI_NAME":"Carpenters Local Union","POI_TYPE":"Office - Corporate","POI_SOURCE":null},"geometry":{"type":"Point","coordinates":[-83.11723120499529,39.991870013347366]}},{"type":"Feature","properties":{"OBJECTID":2031220,"LSN":"495 S HIGH ST Unit 300","POI_NAME":"Rourke & Blumenthal","POI_TYPE":"Office - Corporate","POI_SOURCE":null},"geometry":{"type":"Point","coordinates":[-82.99909942058754,39.952347981134224]}},{"type":"Feature","properties":{"OBJECTID":2031229,"LSN":"2300 LOCKBOURNE RD","POI_NAME":"Wasserstrom Marketing Division","POI_TYPE":"Office - Corporate","POI_SOURCE":null},"geometry":{"type":"Point","coordinates":[-82.9642292722557,39.916863385655226]}},{"type":"Feature","properties":{"OBJECTID":2031249,"LSN":"4654 GROVES RD","POI_NAME":"Central Juice Vending","POI_TYPE":"Office - Corporate","POI_SOURCE":null},"geometry":{"type":"Point","coordinates":[-82.87192048372766,39.93031180099262]}},{"type":"Feature","properties":{"OBJECTID":2031272,"LSN":"1261 DUBLIN RD","POI_NAME":"WSYX ABC 6","POI_TYPE":"Office - Corporate","POI_SOURCE":null},"geometry":{"type":"Point","coordinates":[-83.05894053593289,39.975738664078925]}},{"type":"Feature","properties":{"OBJECTID":2031281,"LSN":"48 E 15TH AVE","POI_NAME":"National Court Reporters","POI_TYPE":"Office - Corporate","POI_SOURCE":null},"geometry":{"type":"Point","coordinates":[-83.00672397649835,40.00024300509614]}},{"type":"Feature","properties":{"OBJECTID":2031282,"LSN":"8050 N HIGH ST","POI_NAME":"Ohio Association of School Business Officials","POI_TYPE":"Office - Corporate","POI_SOURCE":null},"geometry":{"type":"Point","coordinates":[-83.01541113883468,40.12853274121537]}},{"type":"Feature","properties":{"OBJECTID":2031286,"LSN":"2727 HARRISON RD","POI_NAME":"Jag Graphics","POI_TYPE":"Office - Corporate","POI_SOURCE":null},"geometry":{"type":"Point","coordinates":[-83.07281128369223,39.96722481836512]}},{"type":"Feature","properties":{"OBJECTID":2031287,"LSN":"3800 WESTERVILLE RD","POI_NAME":"Fraternal Order of Eagles","POI_TYPE":"Office - Non-Profit","POI_SOURCE":null},"geometry":{"type":"Point","coordinates":[-82.94477973740084,40.046461087962186]}},{"type":"Feature","properties":{"OBJECTID":2031296,"LSN":"2716 AGORA DR","POI_NAME":"Geico ","POI_TYPE":"Office - Corporate","POI_SOURCE":null},"geometry":{"type":"Point","coordinates":[-83.0894546506288,40.11559147585824]}},{"type":"Feature","properties":{"OBJECTID":2031303,"LSN":"4638 GROVES RD","POI_NAME":"Precision Machine Tool Technologies","POI_TYPE":"Office - Corporate","POI_SOURCE":null},"geometry":{"type":"Point","coordinates":[-82.87233932785668,39.930748349156104]}},{"type":"Feature","properties":{"OBJECTID":2031318,"LSN":"2111 INTERNATIONAL ST","POI_NAME":"Pepperidge Farm","POI_TYPE":"Office - Corporate","POI_SOURCE":null},"geometry":{"type":"Point","coordinates":[-83.13741904740458,39.99667159733134]}},{"type":"Feature","properties":{"OBJECTID":2031319,"LSN":"2640 BILLINGSLEY RD","POI_NAME":"Pavlick Contract Associates","POI_TYPE":"Office - Corporate","POI_SOURCE":null},"geometry":{"type":"Point","coordinates":[-83.08656393520495,40.11289034572931]}},{"type":"Feature","properties":{"OBJECTID":2031326,"LSN":"2343 WESTBROOKE DR","POI_NAME":"HC Fabricating Corporation","POI_TYPE":"Office - Corporate","POI_SOURCE":null},"geometry":{"type":"Point","coordinates":[-83.11354739695467,40.00103205379227]}},{"type":"Feature","properties":{"OBJECTID":2031328,"LSN":"1295 S HIGH ST","POI_NAME":"Joseph Pursglove  Attorney","POI_TYPE":"Office - Corporate","POI_SOURCE":null},"geometry":{"type":"Point","coordinates":[-82.99629109704222,39.93559981123436]}},{"type":"Feature","properties":{"OBJECTID":2031350,"LSN":"1310 DUBLIN RD","POI_NAME":"Voight Strategic Insights","POI_TYPE":"Office - Corporate","POI_SOURCE":null},"geometry":{"type":"Point","coordinates":[-83.060735553941,39.97797566631108]}},{"type":"Feature","properties":{"OBJECTID":2031368,"LSN":"2941 OLENTANGY RIVER RD","POI_NAME":"PNC Bank","POI_TYPE":"Office - Bank","POI_SOURCE":null},"geometry":{"type":"Point","coordinates":[-83.02531168513661,40.020748415996245]}},{"type":"Feature","properties":{"OBJECTID":2031377,"LSN":"1771 JOYCE AVE","POI_NAME":"AFSCME Local 1632","POI_TYPE":"Office - Corporate","POI_SOURCE":null},"geometry":{"type":"Point","coordinates":[-82.96477795579439,40.00321110468176]}},{"type":"Feature","properties":{"OBJECTID":2027378,"LSN":"500 S 4TH ST  1","POI_NAME":"Advanced Auto Insurance Network","POI_TYPE":"Office - Corporate","POI_SOURCE":null},"geometry":{"type":"Point","coordinates":[-82.99407624859063,39.952412782061955]}},{"type":"Feature","properties":{"OBJECTID":2027380,"LSN":"4259 DONLYN CT","POI_NAME":"Express Tax","POI_TYPE":"Office - Corporate","POI_SOURCE":null},"geometry":{"type":"Point","coordinates":[-82.88467999568816,39.92664107853056]}},{"type":"Feature","properties":{"OBJECTID":2027381,"LSN":"121 E CHESTNUT ST","POI_NAME":"Gerber","POI_TYPE":"Office - Corporate","POI_SOURCE":null},"geometry":{"type":"Point","coordinates":[-82.99825698151616,39.96786701352968]}},{"type":"Feature","properties":{"OBJECTID":2027383,"LSN":"77 E NATIONWIDE BLVD","POI_NAME":"HER Realtors","POI_TYPE":"Office - Corporate","POI_SOURCE":null},"geometry":{"type":"Point","coordinates":[-82.99981245936627,39.96884866585133]}},{"type":"Feature","properties":{"OBJECTID":2027384,"LSN":"21 E FRANKFORT ST","POI_NAME":"Nemeth & Associates","POI_TYPE":"Office - Corporate","POI_SOURCE":null},"geometry":{"type":"Point","coordinates":[-82.99696300294461,39.94707489541826]}},{"type":"Feature","properties":{"OBJECTID":2027385,"LSN":"2073 REFUGEE RD","POI_NAME":"Red Truck Fire & Safety","POI_TYPE":"Office - Corporate","POI_SOURCE":null},"geometry":{"type":"Point","coordinates":[-82.94775654493345,39.91825612958478]}},{"type":"Feature","properties":{"OBJECTID":2027391,"LSN":"1670 HARRISBURG PIKE APT 2H","POI_NAME":"Community Housing Network","POI_TYPE":"Office - Non-Profit","POI_SOURCE":"CBLD1706419"},"geometry":{"type":"Point","coordinates":[-83.05798097217166,39.92351444910451]}},{"type":"Feature","properties":{"OBJECTID":2027424,"LSN":"3520 SNOUFFER RD Unit D","POI_NAME":"American Family Insurance ","POI_TYPE":"Office - Corporate","POI_SOURCE":null},"geometry":{"type":"Point","coordinates":[-83.08344614265285,40.10516541509555]}},{"type":"Feature","properties":{"OBJECTID":2027445,"LSN":"11 BUTTLES AVE","POI_NAME":"Richard J Bruggeman & Co","POI_TYPE":"Office - Corporate","POI_SOURCE":null},"geometry":{"type":"Point","coordinates":[-83.00403188108665,39.977074888360406]}},{"type":"Feature","properties":{"OBJECTID":2027485,"LSN":"54 DILLMONT DR","POI_NAME":"Allstate Insurance","POI_TYPE":"Office - Corporate","POI_SOURCE":null},"geometry":{"type":"Point","coordinates":[-83.01505828841026,40.134466275339264]}},{"type":"Feature","properties":{"OBJECTID":2027486,"LSN":"840 MICHIGAN AVE","POI_NAME":"Columbus Engineering Consultants","POI_TYPE":"Office - Corporate","POI_SOURCE":null},"geometry":{"type":"Point","coordinates":[-83.01698047733639,39.97790752075827]}},{"type":"Feature","properties":{"OBJECTID":2027488,"LSN":"4314 E 5TH AVE","POI_NAME":"DSW Warehouse Offices","POI_TYPE":"Office - Corporate","POI_SOURCE":null},"geometry":{"type":"Point","coordinates":[-82.88829810727141,39.98976637051996]}},{"type":"Feature","properties":{"OBJECTID":2027546,"LSN":"1946 N HIGH ST","POI_NAME":"NorthSteppe Realty","POI_TYPE":"Office - Corporate","POI_SOURCE":null},"geometry":{"type":"Point","coordinates":[-83.00830472264502,40.00199206128986]}},{"type":"Feature","properties":{"OBJECTID":2027547,"LSN":"2661 BILLINGSLEY RD","POI_NAME":"SCRAM! Wildlife Control","POI_TYPE":"Office - Corporate","POI_SOURCE":null},"geometry":{"type":"Point","coordinates":[-83.0864179125434,40.11219763211758]}},{"type":"Feature","properties":{"OBJECTID":2027548,"LSN":"4407 TAMARACK BLVD","POI_NAME":"Vaud-Villities Productions","POI_TYPE":"Office - Corporate","POI_SOURCE":null},"geometry":{"type":"Point","coordinates":[-82.97325251456593,40.0570386336144]}},{"type":"Feature","properties":{"OBJECTID":2027549,"LSN":"4615 NORTHTOWNE BLVD","POI_NAME":"Columbus Muslim American Society","POI_TYPE":"Office - Non-Profit","POI_SOURCE":null},"geometry":{"type":"Point","coordinates":[-82.96076464908795,40.06322688248201]}},{"type":"Feature","properties":{"OBJECTID":2027587,"LSN":"1928 N HIGH ST","POI_NAME":"Huntington Bank","POI_TYPE":"Office - Bank","POI_SOURCE":null},"geometry":{"type":"Point","coordinates":[-83.0082164387465,40.0017656056851]}},{"type":"Feature","properties":{"OBJECTID":2027589,"LSN":"199 E RICH ST","POI_NAME":"New Directions Career Center","POI_TYPE":"Office - Non-Profit","POI_SOURCE":null},"geometry":{"type":"Point","coordinates":[-82.99428172792258,39.957940327664566]}},{"type":"Feature","properties":{"OBJECTID":2027590,"LSN":"915 S HIGH ST","POI_NAME":"Philip H Sheridan Jr Attorney","POI_TYPE":"Office - Corporate","POI_SOURCE":null},"geometry":{"type":"Point","coordinates":[-82.99751773156885,39.94335278886935]}},{"type":"Feature","properties":{"OBJECTID":2027591,"LSN":"2524 BILLINGSLEY RD","POI_NAME":"Regals in Columbus","POI_TYPE":"Office - Corporate","POI_SOURCE":null},"geometry":{"type":"Point","coordinates":[-83.0833722982127,40.112844029524815]}},{"type":"Feature","properties":{"OBJECTID":2027592,"LSN":"1535 GEORGESVILLE RD","POI_NAME":"Service Pro","POI_TYPE":"Office - Corporate","POI_SOURCE":null},"geometry":{"type":"Point","coordinates":[-83.12970193786316,39.920269845854854]}},{"type":"Feature","properties":{"OBJECTID":2027593,"LSN":"3490 SNOUFFER RD","POI_NAME":"Snouffer Road Office Park","POI_TYPE":"Office - Corporate","POI_SOURCE":null},"geometry":{"type":"Point","coordinates":[-83.08245015391631,40.1046284525528]}},{"type":"Feature","properties":{"OBJECTID":2027610,"LSN":"1252 E MAIN ST","POI_NAME":"State Farm ","POI_TYPE":"Office - Corporate","POI_SOURCE":null},"geometry":{"type":"Point","coordinates":[-82.96579863818863,39.957944719864855]}},{"type":"Feature","properties":{"OBJECTID":2027649,"LSN":"37 N HIGH ST","POI_NAME":"B I Moyle Associates","POI_TYPE":"Office - Corporate","POI_SOURCE":null},"geometry":{"type":"Point","coordinates":[-83.0010703450723,39.96319095912449]}},{"type":"Feature","properties":{"OBJECTID":2027683,"LSN":"887 E LONG ST","POI_NAME":"GCMC ","POI_TYPE":"Office - Corporate","POI_SOURCE":null},"geometry":{"type":"Point","coordinates":[-82.97744577353248,39.96754627754414]}},{"type":"Feature","properties":{"OBJECTID":2027684,"LSN":"1924 N HIGH ST","POI_NAME":"Chase ATM","POI_TYPE":"Office - Bank","POI_SOURCE":null},"geometry":{"type":"Point","coordinates":[-83.00819022753322,40.001598265021045]}},{"type":"Feature","properties":{"OBJECTID":2027686,"LSN":"1893 REFUGEE RD","POI_NAME":"P B Express","POI_TYPE":"Office - Corporate","POI_SOURCE":null},"geometry":{"type":"Point","coordinates":[-82.95098362447719,39.918244762328804]}},{"type":"Feature","properties":{"OBJECTID":2027688,"LSN":"3500 SNOUFFER RD","POI_NAME":"Bird + Bull Engineers & Surveyors","POI_TYPE":"Office - Corporate","POI_SOURCE":null},"geometry":{"type":"Point","coordinates":[-83.0824233317581,40.10475769942242]}},{"type":"Feature","properties":{"OBJECTID":2027742,"LSN":"5115 KRIEGER CT","POI_NAME":"ACN Columbus","POI_TYPE":"Office - Corporate","POI_SOURCE":"CBLD1704829"},"geometry":{"type":"Point","coordinates":[-83.13430261714379,39.915865074219624]}},{"type":"Feature","properties":{"OBJECTID":2027764,"LSN":"3291 E MAIN ST","POI_NAME":"Pfeifer-Ornstein Insurance Agency","POI_TYPE":"Office - Corporate","POI_SOURCE":null},"geometry":{"type":"Point","coordinates":[-82.91030305905822,39.9561698766506]}},{"type":"Feature","properties":{"OBJECTID":2027789,"LSN":"701 HADLEY DR","POI_NAME":"Universal Processing Co","POI_TYPE":"Office - Corporate","POI_SOURCE":null},"geometry":{"type":"Point","coordinates":[-83.09867729581241,39.96778715983694]}},{"type":"Feature","properties":{"OBJECTID":2027790,"LSN":"1400 HOLLY AVE","POI_NAME":"ZoCo Design","POI_TYPE":"Office - Corporate","POI_SOURCE":null},"geometry":{"type":"Point","coordinates":[-83.03332989413026,39.987559200587576]}},{"type":"Feature","properties":{"OBJECTID":2027791,"LSN":"244 E RICH ST","POI_NAME":"Catholic Diocese of Columbus","POI_TYPE":"Office - Non-Profit","POI_SOURCE":null},"geometry":{"type":"Point","coordinates":[-82.99290492074158,39.95875911414389]}},{"type":"Feature","properties":{"OBJECTID":2027792,"LSN":"548 MAIER PL","POI_NAME":"Community Computer Alliance","POI_TYPE":"Office - Corporate","POI_SOURCE":null},"geometry":{"type":"Point","coordinates":[-83.00711690705523,39.94944722516307]}},{"type":"Feature","properties":{"OBJECTID":2027793,"LSN":"3585 REFUGEE RD","POI_NAME":"Nationwide Insurance","POI_TYPE":"Office - Corporate","POI_SOURCE":null},"geometry":{"type":"Point","coordinates":[-82.90054428841279,39.916302607396474]}},{"type":"Feature","properties":{"OBJECTID":2027796,"LSN":"3500 CLIME RD","POI_NAME":"Chase Bank","POI_TYPE":"Office - Bank","POI_SOURCE":null},"geometry":{"type":"Point","coordinates":[-83.08948050803279,39.92792651218597]}},{"type":"Feature","properties":{"OBJECTID":2027797,"LSN":"3585 INTERCHANGE RD","POI_NAME":"CMD MedTech","POI_TYPE":"Office - Corporate","POI_SOURCE":null},"geometry":{"type":"Point","coordinates":[-83.10021185601339,39.97161550383989]}},{"type":"Feature","properties":{"OBJECTID":2027798,"LSN":"2943 SULLIVANT AVE","POI_NAME":"Doug Rife Real Estate","POI_TYPE":"Office - Corporate","POI_SOURCE":null},"geometry":{"type":"Point","coordinates":[-83.07724547845025,39.943333244439444]}},{"type":"Feature","properties":{"OBJECTID":2027871,"LSN":"1051 E MAIN ST","POI_NAME":"Represent Columbus","POI_TYPE":"Office - Non-Profit","POI_SOURCE":null},"geometry":{"type":"Point","coordinates":[-82.9713727367951,39.9577443567326]}},{"type":"Feature","properties":{"OBJECTID":2027872,"LSN":"63 PARSONS AVE","POI_NAME":"2Reveal 3D Animation","POI_TYPE":"Office - Corporate","POI_SOURCE":null},"geometry":{"type":"Point","coordinates":[-82.98179557211742,39.96292218062179]}},{"type":"Feature","properties":{"OBJECTID":2027874,"LSN":"1005 S HIGH ST","POI_NAME":"Everett John K Attorney","POI_TYPE":"Office - Corporate","POI_SOURCE":null},"geometry":{"type":"Point","coordinates":[-82.99699117354953,39.94153769073583]}},{"type":"Feature","properties":{"OBJECTID":2027876,"LSN":"247 CHITTENDEN AVE","POI_NAME":"Steve Hardwick Inc ","POI_TYPE":"Office - Corporate","POI_SOURCE":null},"geometry":{"type":"Point","coordinates":[-83.00040204749865,39.99522726522885]}},{"type":"Feature","properties":{"OBJECTID":2027878,"LSN":"995 S HIGH ST","POI_NAME":"Kevin Obrien & Associates","POI_TYPE":"Office - Corporate","POI_SOURCE":null},"geometry":{"type":"Point","coordinates":[-82.99697855709135,39.94176834145182]}},{"type":"Feature","properties":{"OBJECTID":2027879,"LSN":"750 KING AVE","POI_NAME":"The Technology Connection","POI_TYPE":"Office - Corporate","POI_SOURCE":null},"geometry":{"type":"Point","coordinates":[-83.02657087632011,39.99110237511787]}},{"type":"Feature","properties":{"OBJECTID":2027881,"LSN":"3520 SNOUFFER RD Unit A","POI_NAME":"Equitable Corporate Park","POI_TYPE":"Office - Corporate","POI_SOURCE":null},"geometry":{"type":"Point","coordinates":[-83.08362403304464,40.104768332803104]}},{"type":"Feature","properties":{"OBJECTID":2027907,"LSN":"2470 NORTH STAR RD","POI_NAME":"Broadcast Educational Media Commission","POI_TYPE":"Office - Corporate","POI_SOURCE":null},"geometry":{"type":"Point","coordinates":[-83.04703114031841,40.00854026258377]}},{"type":"Feature","properties":{"OBJECTID":2027949,"LSN":"3100 SCIOTO-DARBY EXECUTIVE CT","POI_NAME":"Select Services Property Solutions","POI_TYPE":"Office - Corporate","POI_SOURCE":null},"geometry":{"type":"Point","coordinates":[-83.11626164253144,40.01660659868778]}},{"type":"Feature","properties":{"OBJECTID":2027953,"LSN":"999 S HIGH ST","POI_NAME":"Dale A Frenz Attorney ","POI_TYPE":"Office - Corporate","POI_SOURCE":null},"geometry":{"type":"Point","coordinates":[-82.99695288624562,39.94166962280625]}},{"type":"Feature","properties":{"OBJECTID":2027954,"LSN":"1206 W BROAD ST","POI_NAME":"Integrated Services","POI_TYPE":"Office - Corporate","POI_SOURCE":null},"geometry":{"type":"Point","coordinates":[-83.03276014513072,39.95845040921376]}},{"type":"Feature","properties":{"OBJECTID":2027966,"LSN":"1310 SOUTH COLUMBUS AIRPORT RD","POI_NAME":"Absolute Custom Metal Fabrications","POI_TYPE":"Office - Corporate","POI_SOURCE":null},"geometry":{"type":"Point","coordinates":[-82.9662040547659,39.88278706694188]}},{"type":"Feature","properties":{"OBJECTID":2027993,"LSN":"3180 SULLIVANT AVE","POI_NAME":"Assn-Developmentally Disabled","POI_TYPE":"Office - Corporate","POI_SOURCE":null},"geometry":{"type":"Point","coordinates":[-83.08366495213089,39.94350485054332]}},{"type":"Feature","properties":{"OBJECTID":2028006,"LSN":"4800 EVANSWOOD DR","POI_NAME":"CRI Digital","POI_TYPE":"Office - Corporate","POI_SOURCE":null},"geometry":{"type":"Point","coordinates":[-82.99397792749322,40.06403081560709]}},{"type":"Feature","properties":{"OBJECTID":2028070,"LSN":"3100 SULLIVANT AVE","POI_NAME":"Latino or Somali Services","POI_TYPE":"Office - Non-Profit","POI_SOURCE":null},"geometry":{"type":"Point","coordinates":[-83.08149743106762,39.94361718778149]}},{"type":"Feature","properties":{"OBJECTID":2028074,"LSN":"900 S HIGH ST UNIT 1A","POI_NAME":"Buckeye Equity Services","POI_TYPE":"Office - Corporate","POI_SOURCE":null},"geometry":{"type":"Point","coordinates":[-82.99684587791532,39.94366309909302]}},{"type":"Feature","properties":{"OBJECTID":2028075,"LSN":"2988 SULLIVANT AVE","POI_NAME":"Centro Latino Tax","POI_TYPE":"Office - Corporate","POI_SOURCE":null},"geometry":{"type":"Point","coordinates":[-83.07845257824549,39.943635551995975]}},{"type":"Feature","properties":{"OBJECTID":2028076,"LSN":"901 S HIGH ST","POI_NAME":"Joslyn Law Firm","POI_TYPE":"Office - Corporate","POI_SOURCE":null},"geometry":{"type":"Point","coordinates":[-82.99732732610205,39.943658313850676]}},{"type":"Feature","properties":{"OBJECTID":2028077,"LSN":"2224 DIVIDEND DR","POI_NAME":"Mediaworks","POI_TYPE":"Office - Corporate","POI_SOURCE":null},"geometry":{"type":"Point","coordinates":[-83.12031896484147,39.99843149342529]}},{"type":"Feature","properties":{"OBJECTID":2028078,"LSN":"705 HADLEY DR","POI_NAME":"Stauff's Coffee Roasters","POI_TYPE":"Office - Corporate","POI_SOURCE":null},"geometry":{"type":"Point","coordinates":[-83.09865319717022,39.96787984678918]}},{"type":"Feature","properties":{"OBJECTID":2028079,"LSN":"4672 LARWELL DR","POI_NAME":"Asset Planning Management& Research ","POI_TYPE":"Office - Corporate","POI_SOURCE":null},"geometry":{"type":"Point","coordinates":[-83.06199474898627,40.052821875091]}},{"type":"Feature","properties":{"OBJECTID":2028085,"LSN":"4672 FRIENDSHIP DR","POI_NAME":"Atlas Construction Company","POI_TYPE":"Office - Corporate","POI_SOURCE":null},"geometry":{"type":"Point","coordinates":[-82.871905336023,40.004866914776244]}},{"type":"Feature","properties":{"OBJECTID":2028098,"LSN":"250 E BROAD ST","POI_NAME":"Midland Building","POI_TYPE":"Office - Corporate","POI_SOURCE":null},"geometry":{"type":"Point","coordinates":[-82.99403233296647,39.96329492053652]}},{"type":"Feature","properties":{"OBJECTID":2028117,"LSN":"300 MARCONI BLVD","POI_NAME":"Marconi Square","POI_TYPE":"Office - Corporate","POI_SOURCE":null},"geometry":{"type":"Point","coordinates":[-83.00521032018177,39.968171814735534]}},{"type":"Feature","properties":{"OBJECTID":2028119,"LSN":"3099 SULLIVANT AVE","POI_NAME":"Accuratax ","POI_TYPE":"Office - Corporate","POI_SOURCE":null},"geometry":{"type":"Point","coordinates":[-83.08150013118492,39.94308734707492]}},{"type":"Feature","properties":{"OBJECTID":2028123,"LSN":"1959 E 5TH AVE","POI_NAME":"Caine Properties","POI_TYPE":"Office - Corporate","POI_SOURCE":null},"geometry":{"type":"Point","coordinates":[-82.95217735700612,39.98567485683215]}},{"type":"Feature","properties":{"OBJECTID":2028134,"LSN":"2323 INTERNATIONAL ST","POI_NAME":"Schottenstein Management","POI_TYPE":"Office - Corporate","POI_SOURCE":null},"geometry":{"type":"Point","coordinates":[-83.13355230172596,39.999681482973564]}},{"type":"Feature","properties":{"OBJECTID":2028136,"LSN":"409 INDUSTRY DR","POI_NAME":"Hope and Dignity for All","POI_TYPE":"Office - Non-Profit","POI_SOURCE":"CHAN1625394"},"geometry":{"type":"Point","coordinates":[-83.08945206570799,39.96299188187567]}},{"type":"Feature","properties":{"OBJECTID":2028139,"LSN":"4157 ARLINGATE PLZ","POI_NAME":"eFreightLine.com","POI_TYPE":"Office - Corporate","POI_SOURCE":null},"geometry":{"type":"Point","coordinates":[-83.11670199307385,39.98880758457265]}},{"type":"Feature","properties":{"OBJECTID":2028148,"LSN":"1275 DEMOREST RD","POI_NAME":"Matson Insurance Agency","POI_TYPE":"Office - Corporate","POI_SOURCE":null},"geometry":{"type":"Point","coordinates":[-83.09072030817673,39.9284833060369]}},{"type":"Feature","properties":{"OBJECTID":2028149,"LSN":"100 NORTH WOODS BLVD","POI_NAME":"POD Design","POI_TYPE":"Office - Corporate","POI_SOURCE":null},"geometry":{"type":"Point","coordinates":[-83.01964925307904,40.12812155687586]}},{"type":"Feature","properties":{"OBJECTID":2028176,"LSN":"3151 N HIGH ST","POI_NAME":"C.R. O'Neil & Company","POI_TYPE":"Office - Corporate","POI_SOURCE":null},"geometry":{"type":"Point","coordinates":[-83.01480677763945,40.02645691348317]}},{"type":"Feature","properties":{"OBJECTID":2028183,"LSN":"1730 ATLAS ST","POI_NAME":"Richter International","POI_TYPE":"Office - Corporate","POI_SOURCE":null},"geometry":{"type":"Point","coordinates":[-83.14195039479458,39.98606694206259]}},{"type":"Feature","properties":{"OBJECTID":2028193,"LSN":"7461 OAKMEADOWS DR","POI_NAME":"Retail Renovations","POI_TYPE":"Office - Corporate","POI_SOURCE":null},"geometry":{"type":"Point","coordinates":[-82.98128541860314,40.11744616254634]}},{"type":"Feature","properties":{"OBJECTID":2028220,"LSN":"40 NORTH WOODS BLVD","POI_NAME":"Milliron & Kensinger CPAS","POI_TYPE":"Office - Corporate","POI_SOURCE":null},"geometry":{"type":"Point","coordinates":[-83.01828070615645,40.130178127455224]}},{"type":"Feature","properties":{"OBJECTID":2028225,"LSN":"2168 CLOVERLEAF STE","POI_NAME":"Nelbud Services Group","POI_TYPE":"Office - Corporate","POI_SOURCE":null},"geometry":{"type":"Point","coordinates":[-82.87282443638382,39.93035476547006]}},{"type":"Feature","properties":{"OBJECTID":2028227,"LSN":"541 S 3RD ST","POI_NAME":"Mediation Service of Ohio","POI_TYPE":"Office - Corporate","POI_SOURCE":"CBLD1706915"},"geometry":{"type":"Point","coordinates":[-82.99598025823643,39.9513066676579]}},{"type":"Feature","properties":{"OBJECTID":2028230,"LSN":"300 PHILLIPI RD","POI_NAME":"Big Lots ","POI_TYPE":"Office - Corporate","POI_SOURCE":null},"geometry":{"type":"Point","coordinates":[-83.10936340830541,39.95917463581841]}},{"type":"Feature","properties":{"OBJECTID":2028234,"LSN":"553 W RICH ST","POI_NAME":"Steel Erectors International ","POI_TYPE":"Office - Corporate","POI_SOURCE":null},"geometry":{"type":"Point","coordinates":[-83.01456054328955,39.955662898221995]}},{"type":"Feature","properties":{"OBJECTID":2028237,"LSN":"2273 MORSE RD","POI_NAME":"Dahabshil","POI_TYPE":"Office - Corporate","POI_SOURCE":null},"geometry":{"type":"Point","coordinates":[-82.9582479390802,40.0588237918117]}},{"type":"Feature","properties":{"OBJECTID":2028238,"LSN":"246 E CAMPUS VIEW BLVD","POI_NAME":"Wescom Solutions","POI_TYPE":"Office - Corporate","POI_SOURCE":null},"geometry":{"type":"Point","coordinates":[-83.00809178797432,40.11920571564524]}},{"type":"Feature","properties":{"OBJECTID":2028241,"LSN":"333 N GARFIELD AVE","POI_NAME":"Gregory Clark Multi Purpose","POI_TYPE":"Office - Corporate","POI_SOURCE":null},"geometry":{"type":"Point","coordinates":[-82.97991320076564,39.97173181297033]}},{"type":"Feature","properties":{"OBJECTID":2028243,"LSN":"5241 TRABUE RD","POI_NAME":"Second Generation Power","POI_TYPE":"Office - Corporate","POI_SOURCE":null},"geometry":{"type":"Point","coordinates":[-83.1407449785942,39.98112668057023]}},{"type":"Feature","properties":{"OBJECTID":2028244,"LSN":"327 E BROAD ST","POI_NAME":"Good Realty Company","POI_TYPE":"Office - Corporate","POI_SOURCE":null},"geometry":{"type":"Point","coordinates":[-82.99171711834076,39.9628077655829]}},{"type":"Feature","properties":{"OBJECTID":2028245,"LSN":"1072 ALUM CREEK DR","POI_NAME":"Lao Volunteer Donation Association","POI_TYPE":"Office - Non-Profit","POI_SOURCE":null},"geometry":{"type":"Point","coordinates":[-82.94432326366908,39.94624032802009]}},{"type":"Feature","properties":{"OBJECTID":2028247,"LSN":"2220 DIVIDEND DR","POI_NAME":"HSM Electronic Protection Services","POI_TYPE":"Office - Corporate","POI_SOURCE":null},"geometry":{"type":"Point","coordinates":[-83.12031708745549,39.99823468751461]}},{"type":"Feature","properties":{"OBJECTID":2028266,"LSN":"88 N 5TH ST","POI_NAME":"Albers Law Firm","POI_TYPE":"Office - Corporate","POI_SOURCE":null},"geometry":{"type":"Point","coordinates":[-82.99444311835053,39.96487167378095]}},{"type":"Feature","properties":{"OBJECTID":2028271,"LSN":"2101 E LIVINGSTON AVE","POI_NAME":"Chase ATM","POI_TYPE":"Office - Bank","POI_SOURCE":null},"geometry":{"type":"Point","coordinates":[-82.94093772682088,39.94782842445727]}},{"type":"Feature","properties":{"OBJECTID":2028291,"LSN":"785 FREBIS AVE","POI_NAME":"Shinning Company","POI_TYPE":"Office - Corporate","POI_SOURCE":null},"geometry":{"type":"Point","coordinates":[-82.9747813488872,39.93456067825338]}},{"type":"Feature","properties":{"OBJECTID":2028293,"LSN":"2850 CHARTER ST","POI_NAME":"Ball Metal Food Container Operations","POI_TYPE":"Office - Corporate","POI_SOURCE":null},"geometry":{"type":"Point","coordinates":[-83.13435508215002,40.010573300143335]}},{"type":"Feature","properties":{"OBJECTID":2028298,"LSN":"625 W TOWN ST","POI_NAME":"Pilot Dogs","POI_TYPE":"Office - Non-Profit","POI_SOURCE":null},"geometry":{"type":"Point","coordinates":[-83.0165726679088,39.95665605577559]}},{"type":"Feature","properties":{"OBJECTID":2028302,"LSN":"6305 LA SALLE DR","POI_NAME":"Amerisource Bergen","POI_TYPE":"Office - Corporate","POI_SOURCE":null},"geometry":{"type":"Point","coordinates":[-82.96096235396875,39.83569544365635]}},{"type":"Feature","properties":{"OBJECTID":2028309,"LSN":"211 N 4TH ST","POI_NAME":"Grand DesignGroup","POI_TYPE":"Office - Corporate","POI_SOURCE":"CBLD1707762"},"geometry":{"type":"Point","coordinates":[-82.99728104119659,39.967224214442496]}},{"type":"Feature","properties":{"OBJECTID":2028313,"LSN":"646 PARSONS AVE","POI_NAME":"Aetna Integrated Services","POI_TYPE":"Office - Corporate","POI_SOURCE":null},"geometry":{"type":"Point","coordinates":[-82.98219903344388,39.95043416243367]}},{"type":"Feature","properties":{"OBJECTID":2028335,"LSN":"1126 MCNAUGHTEN RD","POI_NAME":"Ohio Bell Telephone Company","POI_TYPE":"Office - Corporate","POI_SOURCE":null},"geometry":{"type":"Point","coordinates":[-82.83786527444511,39.956252582738664]}},{"type":"Feature","properties":{"OBJECTID":2028341,"LSN":"5255 SINCLAIR RD","POI_NAME":"Speer Mechanical","POI_TYPE":"Office - Corporate","POI_SOURCE":null},"geometry":{"type":"Point","coordinates":[-82.99878401578981,40.07209600981743]}},{"type":"Feature","properties":{"OBJECTID":2028347,"LSN":"806 BETHEL RD","POI_NAME":"Allstate Insurance","POI_TYPE":"Office - Corporate","POI_SOURCE":null},"geometry":{"type":"Point","coordinates":[-83.04066870006518,40.06387744047372]}},{"type":"Feature","properties":{"OBJECTID":2028359,"LSN":"2831 E MAIN ST","POI_NAME":"Art Russo Realtors","POI_TYPE":"Office - Corporate","POI_SOURCE":null},"geometry":{"type":"Point","coordinates":[-82.92285136626107,39.956597497636146]}},{"type":"Feature","properties":{"OBJECTID":2031384,"LSN":"1625 FRANK RD","POI_NAME":"XTRA Lease Columbus","POI_TYPE":"Office - Corporate","POI_SOURCE":null},"geometry":{"type":"Point","coordinates":[-83.04659312431669,39.91795788860823]}},{"type":"Feature","properties":{"OBJECTID":2031399,"LSN":"1199 N 4TH ST","POI_NAME":"Ohio Fire & Safety ","POI_TYPE":"Office - Corporate","POI_SOURCE":null},"geometry":{"type":"Point","coordinates":[-82.99998954622538,39.98750687732815]}},{"type":"Feature","properties":{"OBJECTID":2031401,"LSN":"492 TRADE RD","POI_NAME":"C Construction Services","POI_TYPE":"Office - Corporate","POI_SOURCE":null},"geometry":{"type":"Point","coordinates":[-83.09020710856092,39.96432017059664]}},{"type":"Feature","properties":{"OBJECTID":2031402,"LSN":"2751 TULLER PKWY","POI_NAME":"Varo Engineers","POI_TYPE":"Office - Corporate","POI_SOURCE":null},"geometry":{"type":"Point","coordinates":[-83.08987830729147,40.08811050997983]}},{"type":"Feature","properties":{"OBJECTID":2031404,"LSN":"5158 SINCLAIR RD","POI_NAME":"Distinctive Surfaces","POI_TYPE":"Office - Corporate","POI_SOURCE":null},"geometry":{"type":"Point","coordinates":[-82.9975736182787,40.07121875217629]}},{"type":"Feature","properties":{"OBJECTID":2031406,"LSN":"788 MT VERNON AVE","POI_NAME":"Columbus Urban League","POI_TYPE":"Office - Non-Profit","POI_SOURCE":null},"geometry":{"type":"Point","coordinates":[-82.98003832454746,39.97125089484238]}},{"type":"Feature","properties":{"OBJECTID":2031415,"LSN":"471 E BROAD ST","POI_NAME":"Motorists Mutual Insurance Company","POI_TYPE":"Office - Corporate","POI_SOURCE":null},"geometry":{"type":"Point","coordinates":[-82.98787966207428,39.96348537413906]}},{"type":"Feature","properties":{"OBJECTID":2031418,"LSN":"1711 ARLINGATE LN","POI_NAME":"American Society for Nondestructive Testing","POI_TYPE":"Office - Non-Profit","POI_SOURCE":null},"geometry":{"type":"Point","coordinates":[-83.11424037932268,39.98782663735826]}},{"type":"Feature","properties":{"OBJECTID":2031425,"LSN":"3021 INTERNATIONAL ST","POI_NAME":"National Laundry Equipment","POI_TYPE":"Office - Corporate","POI_SOURCE":null},"geometry":{"type":"Point","coordinates":[-83.13255207304273,40.01356277915756]}},{"type":"Feature","properties":{"OBJECTID":2031435,"LSN":"2146 BRITAINS LN","POI_NAME":"RC Wells Construction","POI_TYPE":"Office - Corporate","POI_SOURCE":null},"geometry":{"type":"Point","coordinates":[-82.95900868205368,40.034948281571054]}},{"type":"Feature","properties":{"OBJECTID":2031438,"LSN":"1650 LOCKBOURNE RD","POI_NAME":"Chase Bank","POI_TYPE":"Office - Bank","POI_SOURCE":null},"geometry":{"type":"Point","coordinates":[-82.96403191878369,39.93163071580782]}},{"type":"Feature","properties":{"OBJECTID":2031441,"LSN":"2860 FISHER RD","POI_NAME":"CTL Engineering","POI_TYPE":"Office - Corporate","POI_SOURCE":null},"geometry":{"type":"Point","coordinates":[-83.07615472795187,39.973469103884796]}},{"type":"Feature","properties":{"OBJECTID":2031444,"LSN":"230 E TOWN ST","POI_NAME":"Ohio Chamber of Commerce","POI_TYPE":"Office - Corporate","POI_SOURCE":null},"geometry":{"type":"Point","coordinates":[-82.99402140526884,39.95975092397293]}},{"type":"Feature","properties":{"OBJECTID":2031462,"LSN":"6650 BUSCH BLVD","POI_NAME":"Tape Central","POI_TYPE":"Office - Corporate","POI_SOURCE":null},"geometry":{"type":"Point","coordinates":[-82.9927114709086,40.10105781641422]}},{"type":"Feature","properties":{"OBJECTID":2031464,"LSN":"5990 E MAIN ST","POI_NAME":"Education First Credit Union","POI_TYPE":"Office - Bank","POI_SOURCE":null},"geometry":{"type":"Point","coordinates":[-82.83727313185264,39.95551857905898]}},{"type":"Feature","properties":{"OBJECTID":2031473,"LSN":"1810 ARLINGATE LN","POI_NAME":"Fischel Company ","POI_TYPE":"Office - Corporate","POI_SOURCE":null},"geometry":{"type":"Point","coordinates":[-83.11466163848945,39.98985861596514]}},{"type":"Feature","properties":{"OBJECTID":2031483,"LSN":"1405 DUBLIN RD","POI_NAME":"Advanced Engineering Consultants","POI_TYPE":"Office - Corporate","POI_SOURCE":null},"geometry":{"type":"Point","coordinates":[-83.06476331841534,39.98357575123768]}},{"type":"Feature","properties":{"OBJECTID":2031498,"LSN":"6635 SINGLETREE DR","POI_NAME":"G Mechanical","POI_TYPE":"Office - Corporate","POI_SOURCE":null},"geometry":{"type":"Point","coordinates":[-82.99172677652315,40.10074808835999]}},{"type":"Feature","properties":{"OBJECTID":2031505,"LSN":"92 JEFFERSON AVE","POI_NAME":"Columbus Literacy Council","POI_TYPE":"Office - Corporate","POI_SOURCE":null},"geometry":{"type":"Point","coordinates":[-82.98443396781,39.96612404732996]}},{"type":"Feature","properties":{"OBJECTID":2031514,"LSN":"1698 N HIGH ST","POI_NAME":"Chase Bank","POI_TYPE":"Office - Bank","POI_SOURCE":null},"geometry":{"type":"Point","coordinates":[-83.00729639454399,39.996994025861056]}},{"type":"Feature","properties":{"OBJECTID":2031516,"LSN":"963 JOHN ST","POI_NAME":"Corna Kokosing Construction","POI_TYPE":"Office - Corporate","POI_SOURCE":null},"geometry":{"type":"Point","coordinates":[-83.02718893947832,39.963743608164194]}},{"type":"Feature","properties":{"OBJECTID":2031523,"LSN":"2121 BETHEL RD","POI_NAME":"First Community Bank","POI_TYPE":"Office - Bank","POI_SOURCE":null},"geometry":{"type":"Point","coordinates":[-83.07456382174122,40.063955436551076]}},{"type":"Feature","properties":{"OBJECTID":2031526,"LSN":"3 EASTON OVAL","POI_NAME":"Payliance","POI_TYPE":"Office - Corporate","POI_SOURCE":null},"geometry":{"type":"Point","coordinates":[-82.90530339708137,40.04652671329791]}},{"type":"Feature","properties":{"OBJECTID":2031528,"LSN":"8700 ORION PL","POI_NAME":"Corporate One Credit Union","POI_TYPE":"Office - Bank","POI_SOURCE":null},"geometry":{"type":"Point","coordinates":[-82.96627813700407,40.145693958361534]}},{"type":"Feature","properties":{"OBJECTID":2031532,"LSN":"7575 HUNTINGTON PARK DR","POI_NAME":"Huntington Mortgage Group","POI_TYPE":"Office - Corporate","POI_SOURCE":null},"geometry":{"type":"Point","coordinates":[-83.00701335994385,40.116685806187704]}},{"type":"Feature","properties":{"OBJECTID":2031553,"LSN":"801 KINGSMILL PKWY","POI_NAME":"Sportsmens Alliance National Headquarters","POI_TYPE":"Office - Corporate","POI_SOURCE":null},"geometry":{"type":"Point","coordinates":[-82.99496132312731,40.099712594045776]}},{"type":"Feature","properties":{"OBJECTID":2031562,"LSN":"2109 STELLA CT","POI_NAME":"Ohio Association Career Cig","POI_TYPE":"Office - Corporate","POI_SOURCE":null},"geometry":{"type":"Point","coordinates":[-83.06207756821287,39.98198545435574]}},{"type":"Feature","properties":{"OBJECTID":2031577,"LSN":"515 BONHAM AVE","POI_NAME":"All Systems Diversified","POI_TYPE":"Office - Corporate","POI_SOURCE":null},"geometry":{"type":"Point","coordinates":[-82.99253497296951,39.99313028943506]}},{"type":"Feature","properties":{"OBJECTID":2031580,"LSN":"1212 S FRONT ST","POI_NAME":"Virtual Office Center","POI_TYPE":"Office - Corporate","POI_SOURCE":null},"geometry":{"type":"Point","coordinates":[-82.99727142566834,39.93684218855355]}},{"type":"Feature","properties":{"OBJECTID":2031599,"LSN":"2040 ALUM CREEK DR","POI_NAME":"George J Igel Co","POI_TYPE":"Office - Corporate","POI_SOURCE":null},"geometry":{"type":"Point","coordinates":[-82.93397202574774,39.92831701818359]}},{"type":"Feature","properties":{"OBJECTID":2031609,"LSN":"900 N 20TH ST","POI_NAME":"Capitol Industries","POI_TYPE":"Office - Corporate","POI_SOURCE":null},"geometry":{"type":"Point","coordinates":[-82.97178445871812,39.98420863827743]}},{"type":"Feature","properties":{"OBJECTID":2031610,"LSN":"255 REEB AVE","POI_NAME":"South Side Learning & Development Center","POI_TYPE":"Office - Non-Profit","POI_SOURCE":null},"geometry":{"type":"Point","coordinates":[-82.98850978583292,39.924731406060374]}},{"type":"Feature","properties":{"OBJECTID":2031611,"LSN":"2722 SAWBURY BLVD","POI_NAME":"Rankin Homes","POI_TYPE":"Office - Corporate","POI_SOURCE":null},"geometry":{"type":"Point","coordinates":[-83.08803314819605,40.11497199355324]}},{"type":"Feature","properties":{"OBJECTID":2031617,"LSN":"5163 SINCLAIR RD","POI_NAME":"Waterman","POI_TYPE":"Office - Corporate","POI_SOURCE":null},"geometry":{"type":"Point","coordinates":[-82.99869808346905,40.0705743816279]}},{"type":"Feature","properties":{"OBJECTID":2031629,"LSN":"300 E LONG ST","POI_NAME":"Long Street Studio","POI_TYPE":"Office - Corporate","POI_SOURCE":null},"geometry":{"type":"Point","coordinates":[-82.9931526089791,39.96601361233974]}},{"type":"Feature","properties":{"OBJECTID":2031630,"LSN":"818 ALTON AVE","POI_NAME":"NYAP's Emergency Shelter Care Program","POI_TYPE":"Office - Non-Profit","POI_SOURCE":null},"geometry":{"type":"Point","coordinates":[-82.92518880095308,39.98764791310491]}},{"type":"Feature","properties":{"OBJECTID":2031632,"LSN":"1655 WATKINS RD","POI_NAME":"Converge","POI_TYPE":"Office - Corporate","POI_SOURCE":null},"geometry":{"type":"Point","coordinates":[-82.95065976155252,39.90137829634539]}},{"type":"Feature","properties":{"OBJECTID":2031634,"LSN":"2500 FARMERS DR","POI_NAME":"Charleys Philly Steaks Corporate Office","POI_TYPE":"Office - Corporate","POI_SOURCE":null},"geometry":{"type":"Point","coordinates":[-83.0822425457978,40.108338556317946]}},{"type":"Feature","properties":{"OBJECTID":2031637,"LSN":"1378 E LIVINGSTON AVE","POI_NAME":"Michael Boyd & Associates","POI_TYPE":"Office - Corporate","POI_SOURCE":null},"geometry":{"type":"Point","coordinates":[-82.96081520022034,39.94934174329745]}},{"type":"Feature","properties":{"OBJECTID":2031639,"LSN":"2256 CLEVELAND AVE","POI_NAME":"Skywater International","POI_TYPE":"Office - Corporate","POI_SOURCE":null},"geometry":{"type":"Point","coordinates":[-82.96764833619662,40.013016395309975]}},{"type":"Feature","properties":{"OBJECTID":2031646,"LSN":"3910 GROVES RD","POI_NAME":"E Tech Management ","POI_TYPE":"Office - Corporate","POI_SOURCE":null},"geometry":{"type":"Point","coordinates":[-82.8952009803015,39.932558150386576]}},{"type":"Feature","properties":{"OBJECTID":2031649,"LSN":"9005 ANTARES AVE","POI_NAME":"Newcome Electronic Systems","POI_TYPE":"Office - Corporate","POI_SOURCE":null},"geometry":{"type":"Point","coordinates":[-82.99688542084239,40.146722144425325]}},{"type":"Feature","properties":{"OBJECTID":2031651,"LSN":"13 N WESTMOOR AVE","POI_NAME":"SP Payroll and Tax Services","POI_TYPE":"Office - Corporate","POI_SOURCE":null},"geometry":{"type":"Point","coordinates":[-83.08215259385798,39.954984636442106]}},{"type":"Feature","properties":{"OBJECTID":2031666,"LSN":"2698 SAWBURY BLVD","POI_NAME":"Zerkle Financial Services","POI_TYPE":"Office - Corporate","POI_SOURCE":null},"geometry":{"type":"Point","coordinates":[-83.08771557318619,40.114624959155584]}},{"type":"Feature","properties":{"OBJECTID":2031667,"LSN":"4935 OLENTANGY RIVER RD","POI_NAME":"Nerone & Associates Accountants","POI_TYPE":"Office - Corporate","POI_SOURCE":null},"geometry":{"type":"Point","coordinates":[-83.03707285348882,40.061351967570346]}},{"type":"Feature","properties":{"OBJECTID":2031673,"LSN":"290 W NATIONWIDE BLVD  Unit 114","POI_NAME":"Columbia Gas of Ohio","POI_TYPE":"Office - Corporate","POI_SOURCE":null},"geometry":{"type":"Point","coordinates":[-83.00868151352017,39.968517953690466]}},{"type":"Feature","properties":{"OBJECTID":2031681,"LSN":"4608 SAWMILL RD","POI_NAME":"Capital Investors Advisory","POI_TYPE":"Office - Corporate","POI_SOURCE":null},"geometry":{"type":"Point","coordinates":[-83.09234542809939,40.06203342372508]}},{"type":"Feature","properties":{"OBJECTID":2031696,"LSN":"4168 FISHER RD","POI_NAME":"Di Cesare Co","POI_TYPE":"Office - Corporate","POI_SOURCE":null},"geometry":{"type":"Point","coordinates":[-83.11324854870894,39.97031293246004]}},{"type":"Feature","properties":{"OBJECTID":2031701,"LSN":"2285 WALCUTT RD","POI_NAME":"Yachiyo of America","POI_TYPE":"Office - Corporate","POI_SOURCE":null},"geometry":{"type":"Point","coordinates":[-83.13936627186405,39.99516459751997]}},{"type":"Feature","properties":{"OBJECTID":2031709,"LSN":"3050 E MAIN ST","POI_NAME":"Columbus Finance Company","POI_TYPE":"Office - Corporate","POI_SOURCE":null},"geometry":{"type":"Point","coordinates":[-82.91705606987297,39.956826874107556]}},{"type":"Feature","properties":{"OBJECTID":2031718,"LSN":"4021 EASTON COMMONS","POI_NAME":"Estate Information Services","POI_TYPE":"Office - Corporate","POI_SOURCE":null},"geometry":{"type":"Point","coordinates":[-82.91291776968141,40.04342624795461]}},{"type":"Feature","properties":{"OBJECTID":2031725,"LSN":"4640 EXECUTIVE DR","POI_NAME":"Federal Adjustment Bureau ","POI_TYPE":"Office - Corporate","POI_SOURCE":null},"geometry":{"type":"Point","coordinates":[-83.05906559886039,40.05246505270346]}},{"type":"Feature","properties":{"OBJECTID":2031727,"LSN":"1040 ALUM CREEK DR","POI_NAME":"ATM","POI_TYPE":"Office - Bank","POI_SOURCE":null},"geometry":{"type":"Point","coordinates":[-82.94449493768965,39.9464592994284]}},{"type":"Feature","properties":{"OBJECTID":2031728,"LSN":"3000 SULLIVANT AVE","POI_NAME":"Micasa Group Reality","POI_TYPE":"Office - Corporate","POI_SOURCE":null},"geometry":{"type":"Point","coordinates":[-83.07872727099246,39.9437434403134]}},{"type":"Feature","properties":{"OBJECTID":2031740,"LSN":"5922 SINCLAIR RD","POI_NAME":"Jonathan Teets Creative","POI_TYPE":"Office - Corporate","POI_SOURCE":null},"geometry":{"type":"Point","coordinates":[-82.99685283567703,40.08632245321846]}},{"type":"Feature","properties":{"OBJECTID":2031758,"LSN":"1325 E DUBLIN-GRANVILLE RD","POI_NAME":"Chase Bank","POI_TYPE":"Office - Bank","POI_SOURCE":null},"geometry":{"type":"Point","coordinates":[-82.98173134844652,40.08677244400295]}},{"type":"Feature","properties":{"OBJECTID":2031760,"LSN":"277 E TOWN ST","POI_NAME":"Ohio Public Employees Retirement System","POI_TYPE":"Office - Corporate","POI_SOURCE":null},"geometry":{"type":"Point","coordinates":[-82.99233184578247,39.959460342493756]}},{"type":"Feature","properties":{"OBJECTID":2031767,"LSN":"201 OAK ST","POI_NAME":"Aroma Senses ","POI_TYPE":"Office - Corporate","POI_SOURCE":null},"geometry":{"type":"Point","coordinates":[-83.00560472926792,40.1254706776287]}},{"type":"Feature","properties":{"OBJECTID":2031768,"LSN":"8220 E BROAD ST","POI_NAME":"The Huntington National Bank","POI_TYPE":"Office - Bank","POI_SOURCE":null},"geometry":{"type":"Point","coordinates":[-82.78239538302573,39.986894865967805]}},{"type":"Feature","properties":{"OBJECTID":2031773,"LSN":"852 CLARENDON AVE","POI_NAME":"Veterans of Foreign Wars","POI_TYPE":"Office - Non-Profit","POI_SOURCE":null},"geometry":{"type":"Point","coordinates":[-83.05633513315038,39.93838886252043]}},{"type":"Feature","properties":{"OBJECTID":2031777,"LSN":"1183 E LONG ST","POI_NAME":"Silver Care Corporation","POI_TYPE":"Office - Corporate","POI_SOURCE":null},"geometry":{"type":"Point","coordinates":[-82.96967458660063,39.96825391473244]}},{"type":"Feature","properties":{"OBJECTID":2031793,"LSN":"541 W RICH ST","POI_NAME":"Knockout Concepts","POI_TYPE":"Office - Corporate","POI_SOURCE":null},"geometry":{"type":"Point","coordinates":[-83.01428174043731,39.9556989425826]}},{"type":"Feature","properties":{"OBJECTID":2031795,"LSN":"6349 NICHOLAS DR","POI_NAME":"CLB Restaurants","POI_TYPE":"Office - Corporate","POI_SOURCE":null},"geometry":{"type":"Point","coordinates":[-83.0632031405761,40.086930279428024]}},{"type":"Feature","properties":{"OBJECTID":2031807,"LSN":"1969 E DUBLIN-GRANVILLE RD","POI_NAME":"SafeAuto","POI_TYPE":"Office - Corporate","POI_SOURCE":null},"geometry":{"type":"Point","coordinates":[-82.96525069709142,40.08602353971972]}},{"type":"Feature","properties":{"OBJECTID":2031809,"LSN":"2955 W BROAD ST","POI_NAME":"Voicecorps Reading Services","POI_TYPE":"Office - Non-Profit","POI_SOURCE":null},"geometry":{"type":"Point","coordinates":[-83.07930146728172,39.95443872462625]}},{"type":"Feature","properties":{"OBJECTID":2031818,"LSN":"2221 SCHROCK RD","POI_NAME":"MSS Consultants","POI_TYPE":"Office - Corporate","POI_SOURCE":null},"geometry":{"type":"Point","coordinates":[-82.95857557198015,40.108309363746336]}},{"type":"Feature","properties":{"OBJECTID":2031819,"LSN":"2829 CHARTER ST","POI_NAME":"Priority Wire & Cable","POI_TYPE":"Office - Corporate","POI_SOURCE":null},"geometry":{"type":"Point","coordinates":[-83.13851164612328,40.009366282625415]}},{"type":"Feature","properties":{"OBJECTID":2031820,"LSN":"37 W BROAD ST","POI_NAME":"Huntington Plaza","POI_TYPE":"Office - Corporate","POI_SOURCE":null},"geometry":{"type":"Point","coordinates":[-83.00218806953977,39.961860253260234]}},{"type":"Feature","properties":{"OBJECTID":2031822,"LSN":"195 E 5TH AVE","POI_NAME":"In Service Training Group","POI_TYPE":"Office - Corporate","POI_SOURCE":null},"geometry":{"type":"Point","coordinates":[-83.00023780249197,39.986794820806914]}},{"type":"Feature","properties":{"OBJECTID":2031843,"LSN":"8353 SANCUS BLVD","POI_NAME":"Fifth Third Bank","POI_TYPE":"Office - Bank","POI_SOURCE":null},"geometry":{"type":"Point","coordinates":[-82.99238984553627,40.13627755005609]}},{"type":"Feature","properties":{"OBJECTID":2031844,"LSN":"340 E FULTON ST","POI_NAME":"Ohio Democratic Party","POI_TYPE":"Office - Corporate","POI_SOURCE":null},"geometry":{"type":"Point","coordinates":[-82.98995547016649,39.95481289474329]}},{"type":"Feature","properties":{"OBJECTID":2031846,"LSN":"2315 WESTBROOKE DR","POI_NAME":"The AGA Group ","POI_TYPE":"Office - Corporate","POI_SOURCE":null},"geometry":{"type":"Point","coordinates":[-83.11240604656385,40.00073130644554]}},{"type":"Feature","properties":{"OBJECTID":2031860,"LSN":"924 W BROAD ST","POI_NAME":"Franklinton Board of Trade","POI_TYPE":"Office - Corporate","POI_SOURCE":null},"geometry":{"type":"Point","coordinates":[-83.02531127783358,39.95934873155492]}},{"type":"Feature","properties":{"OBJECTID":2031862,"LSN":"4265 DIPLOMACY DR","POI_NAME":"AC Lens","POI_TYPE":"Office - Corporate","POI_SOURCE":null},"geometry":{"type":"Point","coordinates":[-83.1199978192014,39.99894652462499]}},{"type":"Feature","properties":{"OBJECTID":2031868,"LSN":"2241 CITYGATE DR","POI_NAME":"English Bay Batter ","POI_TYPE":"Office - Corporate","POI_SOURCE":null},"geometry":{"type":"Point","coordinates":[-82.92301648782049,40.01368632708393]}},{"type":"Feature","properties":{"OBJECTID":2031880,"LSN":"1308 W MOUND ST","POI_NAME":"Christopher Cicero Attorney ","POI_TYPE":"Office - Corporate","POI_SOURCE":null},"geometry":{"type":"Point","coordinates":[-83.03325533554589,39.946742597269505]}},{"type":"Feature","properties":{"OBJECTID":2031883,"LSN":"909 KING AVE","POI_NAME":"Environmental Comfort ","POI_TYPE":"Office - Corporate","POI_SOURCE":null},"geometry":{"type":"Point","coordinates":[-83.03099639487141,39.990931203057535]}},{"type":"Feature","properties":{"OBJECTID":2031884,"LSN":"1707 BETHEL RD","POI_NAME":"State Farm","POI_TYPE":"Office - Corporate","POI_SOURCE":null},"geometry":{"type":"Point","coordinates":[-83.06504790148743,40.06374353608415]}},{"type":"Feature","properties":{"OBJECTID":2031898,"LSN":"3333 REFUGEE RD","POI_NAME":"Thompson Building Associates","POI_TYPE":"Office - Corporate","POI_SOURCE":null},"geometry":{"type":"Point","coordinates":[-82.91009630089043,39.91629927543951]}},{"type":"Feature","properties":{"OBJECTID":2031905,"LSN":"2510 BETHEL RD","POI_NAME":"PNC Bank","POI_TYPE":"Office - Bank","POI_SOURCE":null},"geometry":{"type":"Point","coordinates":[-83.08704713474107,40.0652415895375]}},{"type":"Feature","properties":{"OBJECTID":2031907,"LSN":"770 TWIN RIVERS DR","POI_NAME":"Dispatch Broadcasting Group","POI_TYPE":"Office - Corporate","POI_SOURCE":"CBLD1707241"},"geometry":{"type":"Point","coordinates":[-83.02338729655216,39.97009492542801]}},{"type":"Feature","properties":{"OBJECTID":2031915,"LSN":"640 DEARBORN PARK LN","POI_NAME":"Schottenstein Management","POI_TYPE":"Office - Corporate","POI_SOURCE":null},"geometry":{"type":"Point","coordinates":[-83.00019396099563,40.116927227043284]}},{"type":"Feature","properties":{"OBJECTID":2031916,"LSN":"5724 FRANTZ RD","POI_NAME":"Allstate Insurance","POI_TYPE":"Office - Corporate","POI_SOURCE":null},"geometry":{"type":"Point","coordinates":[-83.11855627130787,40.070509794751054]}},{"type":"Feature","properties":{"OBJECTID":2031926,"LSN":"13 E KOSSUTH ST","POI_NAME":"Robin S Stith Law Office","POI_TYPE":"Office - Corporate","POI_SOURCE":null},